计划出库日期,销售订单,送货站点名称,最早收货时间,最晚收货时间,经度,纬度,方量,线路名称,配送顺序,预计送达时间,预计离开时间,距离,行驶时间,线路单边里程,线路时间(单边),线路方量,最晚离仓时间,车型
2025-06-30,OM25062700006594,大足电网—机关食堂,06:00:00,18:00:00,105.738583,29.70041,962.576,V001线,1,2025-06-30 06:00:00,2025-06-30 06:39:00,111.863,151.0,223.726,374.65,962576.0,2025-06-30 03:12:00,小型面包车
2025-06-30,OM25062700006667,大足电网—城区食堂,06:00:00,18:00:00,105.70941,29.703558,527.523,V002线,1,2025-06-30 06:00:00,2025-06-30 06:28:00,118.311,163.0,236.622,383.12,527523.0,2025-06-30 03:03:00,小型面包车
2025-06-30,OM25062700007696,大足电网—运检食堂,06:00:00,18:00:00,105.742796,29.697112,714.163,V003线,1,2025-06-30 06:00:00,2025-06-30 06:33:00,119.351,153.0,238.702,390.91,714163.0,2025-06-30 03:01:00,小型面包车
2025-06-30,OM25062900002442,重庆建工第三建设有限责任公司高新建材分公司,06:00:00,18:00:00,106.694554,28.973976,587.868,V004线,1,2025-06-30 06:00:00,2025-06-30 06:30:00,121.436,180.0,242.872,394.0,587868.0,2025-06-30 02:58:00,小型面包车
2025-06-30,OM25062900003761,重庆市大足区气象局,06:00:00,18:00:00,105.716098,29.700127,68.902,V005线,1,2025-06-30 06:00:00,2025-06-30 06:21:00,117.961,163.0,235.922,374.92,68902.0,2025-06-30 03:03:00,小型面包车
2025-06-30,OM25062900005477,重庆农村商业银行股份有限公司大足支行,06:00:00,18:00:00,105.737082,29.69033,454.721,V006线,1,2025-06-30 06:00:00,2025-06-30 06:27:00,114.984,154.0,227.199,351.3,486721.0,2025-06-30 03:26:00,小型面包车
2025-06-30,OM25062900002258,国投健康养老服务（重庆）有限公司-水果,06:00:00,18:00:00,106.375095,29.641469,32.0,V006线,2,2025-06-30 08:47:00,2025-06-30 09:07:00,107.72,140.0,,,,,小型面包车
2025-06-30,OW25062700000058,天骄名城小金星幼儿园-老师,06:00:00,18:00:00,106.322559,29.587865,20.028,V007线,1,2025-06-30 06:00:00,2025-06-30 06:20:00,16.332,26.0,213.194,339.6,173474.0,2025-06-30 05:34:00,小型面包车
2025-06-30,OM25062900005597,重庆市应能应急救援有限公司永川队,06:00:00,18:00:00,105.724175,29.34498,153.446,V007线,2,2025-06-30 08:29:00,2025-06-30 08:52:00,91.264,129.0,,,,,小型面包车
2025-06-30,OM25062900000373,高新区自来水-西彭,06:00:00,18:00:00,106.303766,29.332745,104.757,V008线,1,2025-06-30 06:00:00,2025-06-30 06:22:00,49.982,80.0,113.025,496.11,469922.0,2025-06-30 04:45:00,小型面包车
2025-06-30,OM25062900002011,重庆九龙坡区铝都实验幼儿园,06:00:00,18:00:00,106.335525,29.306186,0.0,V008线,2,2025-06-30 06:31:00,2025-06-30 06:51:00,6.568,13.0,,,,,小型面包车
2025-06-30,OW25062700000082,铝都实验幼儿园-教师,06:00:00,18:00:00,106.335525,29.306186,12.315,V008线,3,2025-06-30 06:20:00,2025-06-30 06:40:00,0.005,1.0,,,,,小型面包车
2025-06-30,OW25062700000085,重庆九龙坡区铝都实验幼儿园,06:00:00,18:00:00,106.335525,29.306186,6.96,V008线,4,2025-06-30 06:40:00,2025-06-30 07:00:00,0.005,1.0,,,,,小型面包车
2025-06-30,OW25062700001096,重庆九龙坡区铝都实验幼儿园,06:00:00,18:00:00,106.335525,29.306186,331.778,V008线,5,2025-06-30 07:00:00,2025-06-30 07:25:00,0.005,1.0,,,,,小型面包车
2025-06-30,OW25062700001101,铝都实验幼儿园-教师,06:00:00,18:00:00,106.335525,29.306186,14.112,V008线,6,2025-06-30 07:25:00,2025-06-30 07:46:00,0.005,1.0,,,,,小型面包车
2025-06-30,OM25062700003763,重庆人文艺术职业学校,06:00:00,18:00:00,106.595651,29.423402,1168.257,V021线,1,2025-06-30 06:00:00,2025-06-30 06:44:00,49.419,77.0,139.688,546.49,2905485.0,2025-06-30 04:46:00,大型面包车
2025-06-30,OM25062700005693,耐德-界石,06:00:00,18:00:00,106.626114,29.398649,818.94,V021线,2,2025-06-30 06:56:00,2025-06-30 07:32:00,8.16,18.0,,,,,大型面包车
2025-06-30,OM25062900003965,重庆数智产业园建设实业有限公司,06:00:00,18:00:00,106.610019,29.393231,473.233,V021线,3,2025-06-30 06:39:00,2025-06-30 07:06:00,2.056,7.0,,,,,大型面包车
2025-06-30,OM25062900004813,中国烟草总公司重巴南分公司（界石）,06:00:00,18:00:00,106.611893,29.393828,73.451,V021线,4,2025-06-30 06:27:00,2025-06-30 06:48:00,0.179,1.0,,,,,大型面包车
2025-06-30,OM25062900005399,重庆市巴南区人民政府南彭街道办事处,06:00:00,18:00:00,106.661351,29.349681,281.234,V021线,5,2025-06-30 06:35:00,2025-06-30 07:00:00,9.578,18.0,,,,,大型面包车
2025-06-30,OM25062900005684,道角检修基地,06:00:00,18:00:00,106.548796,29.391216,90.37,V021线,6,2025-06-30 07:33:00,2025-06-30 07:54:00,22.232,35.0,,,,,大型面包车
2025-06-30,OM25062700003369,重庆市江北区复盛镇人民政府,06:00:00,18:00:00,106.800921,29.652905,438.488,V009线,1,2025-06-30 06:00:00,2025-06-30 06:27:00,48.725,57.0,111.922,219.84,855686.0,2025-06-30 05:03:00,小型面包车
2025-06-30,OM25062900005582,江北中队,06:00:00,18:00:00,106.831191,29.653835,200.927,V009线,2,2025-06-30 06:44:00,2025-06-30 07:07:00,8.162,17.0,,,,,小型面包车
2025-06-30,OM25062900004879,十五中队,06:00:00,18:00:00,106.804464,29.648298,216.271,V009线,3,2025-06-30 07:23:00,2025-06-30 07:46:00,6.224,16.0,,,,,小型面包车
2025-06-30,OM25062700004395,国家税务总局重庆市税务局第五稽查局,06:00:00,18:00:00,106.645811,29.48559,697.774,V010线,1,2025-06-30 06:00:00,2025-06-30 06:32:00,47.149,59.0,141.917,338.34,2061908.0,2025-06-30 05:01:00,小型面包车
2025-06-30,OM25062900003575,蓝月亮（重庆）有限公司,06:00:00,18:00:00,106.633193,29.410934,1043.739,V010线,2,2025-06-30 06:52:00,2025-06-30 07:34:00,10.987,20.0,,,,,小型面包车
2025-06-30,OM25062900001908,招商智翔道路科技（重庆）有限公司,06:00:00,18:00:00,106.644376,29.479177,224.005,V010线,3,2025-06-30 07:57:00,2025-06-30 08:20:00,11.692,23.0,,,,,小型面包车
2025-06-30,OM25062900005965,蓝月亮（重庆）有限公司,06:00:00,18:00:00,106.633193,29.410934,96.39,V010线,4,2025-06-30 08:43:00,2025-06-30 09:04:00,11.692,23.0,,,,,小型面包车
2025-06-30,OM25062900003160,重庆市九龙坡区含谷镇人民政府,06:00:00,18:00:00,106.384147,29.523009,475.368,V011线,1,2025-06-30 06:00:00,2025-06-30 06:27:00,21.453,30.0,142.711,266.49,1929642.0,2025-06-30 05:30:00,小型面包车
2025-06-30,OM25062700003786,重庆市江北区鱼嘴镇人民政府,06:00:00,18:00:00,106.767814,29.628511,592.94,V011线,2,2025-06-30 07:43:00,2025-06-30 08:13:00,71.465,76.0,,,,,小型面包车
2025-06-30,OM25062900005005,重庆两江新区鱼复工业园建设投资有限公司（日配）,06:00:00,18:00:00,106.761989,29.632985,861.334,V011线,3,2025-06-30 08:24:00,2025-06-30 09:00:00,3.126,11.0,,,,,小型面包车
2025-06-30,OM25062700007492,重庆市巴南区人民政府惠民街道办事处,06:00:00,18:00:00,106.714731,29.464225,608.528,V012线,1,2025-06-30 06:00:00,2025-06-30 06:30:00,53.814,64.0,125.036,284.34,1083393.0,2025-06-30 04:56:00,小型面包车
2025-06-30,OM25062900002363,中铁一局-新拌合站（东站）,06:00:00,18:00:00,106.684044,29.502553,63.395,V012线,2,2025-06-30 06:42:00,2025-06-30 07:03:00,10.093,12.0,,,,,小型面包车
2025-06-30,OM25062900003025,中铁二十局集团房地产开发有限公司,06:00:00,18:00:00,106.656399,29.503125,282.744,V012线,3,2025-06-30 07:15:00,2025-06-30 07:39:00,5.239,12.0,,,,,小型面包车
2025-06-30,OW25062900001145,重庆今瑜医药股份有限公司,06:00:00,18:00:00,106.635165,29.478089,80.37,V012线,4,2025-06-30 07:51:00,2025-06-30 08:13:00,4.682,12.0,,,,,小型面包车
2025-06-30,OM25062900004509,中铁二十五局集团有限公司（食堂）-轨道24号线,06:00:00,18:00:00,106.628424,29.471664,48.356,V012线,5,2025-06-30 08:17:00,2025-06-30 08:37:00,1.656,4.0,,,,,小型面包车
2025-06-30,OM25062900001212,中国人民解放军陆军第九五三医院,06:00:00,18:00:00,106.396359,29.246407,55.4,V022线,1,2025-06-30 06:00:00,2025-06-30 06:21:00,75.9,111.0,153.748,595.98,2139000.0,2025-06-30 04:06:00,大型面包车
2025-06-30,OM25062900001918,中国人民解放军联勤保障部队第九〇四医院,06:00:00,18:00:00,106.396359,29.246407,111.339,V022线,2,2025-06-30 06:21:00,2025-06-30 06:43:00,0.001,1.0,,,,,大型面包车
2025-06-30,OM25062900002305,陆军第八十一集团军医院,06:00:00,18:00:00,106.387972,29.270314,103.636,V022线,3,2025-06-30 06:56:00,2025-06-30 07:18:00,9.315,15.0,,,,,大型面包车
2025-06-30,OM25062900003525,江津食堂-学员,06:00:00,18:00:00,106.387972,29.270314,685.025,V022线,4,2025-06-30 06:22:00,2025-06-30 06:54:00,0.001,1.0,,,,,大型面包车
2025-06-30,OM25062900003611,江津食堂-基地,06:00:00,18:00:00,106.387972,29.270314,18.65,V022线,5,2025-06-30 06:54:00,2025-06-30 07:14:00,0.001,1.0,,,,,大型面包车
2025-06-30,OM25062900003621,江津食堂-基地化训练,06:00:00,18:00:00,106.387972,29.270314,674.95,V022线,6,2025-06-30 07:14:00,2025-06-30 07:46:00,0.001,1.0,,,,,大型面包车
2025-06-30,OM25063000000175,重庆客百年农产品经营有限公司,06:00:00,18:00:00,106.278841,29.390591,490.0,V022线,7,2025-06-30 08:27:00,2025-06-30 08:55:00,27.751,38.0,,,,,大型面包车
2025-06-30,OM25062700006783,巴南不动产登记中心-干副粮油,06:00:00,18:00:00,106.543865,29.425925,58.5,V013线,1,2025-06-30 06:00:00,2025-06-30 06:21:00,43.954,67.0,207.272,520.32,1992092.0,2025-06-30 04:54:00,小型面包车
2025-06-30,OM25062700006785,重庆市巴南不动产登记中心,06:00:00,18:00:00,106.543865,29.425925,366.399,V013线,2,2025-06-30 06:21:00,2025-06-30 06:46:00,0.001,1.0,,,,,小型面包车
2025-06-30,OM25062800004147,重庆市巴南区理想城幼儿园,06:00:00,18:00:00,106.528709,29.434222,21.608,V013线,3,2025-06-30 06:53:00,2025-06-30 07:13:00,4.429,13.0,,,,,小型面包车
2025-06-30,OM25062800005141,理想城幼儿园-教师,06:00:00,18:00:00,106.528709,29.434222,44.576,V013线,4,2025-06-30 06:20:00,2025-06-30 06:41:00,0.001,1.0,,,,,小型面包车
2025-06-30,OM25062800005153,重庆市巴南区理想城幼儿园,06:00:00,18:00:00,106.528709,29.434222,145.833,V013线,5,2025-06-30 06:41:00,2025-06-30 07:03:00,0.001,1.0,,,,,小型面包车
2025-06-30,OM25062900002293,中国共产党重庆市巴南区委员会党校,06:00:00,18:00:00,106.555913,29.45729,465.999,V013线,6,2025-06-30 07:11:00,2025-06-30 07:38:00,5.45,14.0,,,,,小型面包车
2025-06-30,OM25062900005719,中国人民解放军32614部队,06:00:00,18:00:00,106.56171,29.061945,765.069,V013线,7,2025-06-30 07:53:00,2025-06-30 08:27:00,57.169,85.0,,,,,小型面包车
2025-06-30,OW25062900000124,重庆市巴南区芸峰兰亭幼儿园,06:00:00,18:00:00,106.554186,29.450315,124.108,V013线,8,2025-06-30 07:57:00,2025-06-30 08:19:00,55.475,82.0,,,,,小型面包车
2025-06-30,OM25062700001717,重庆市巴南区人民政府鱼洞街道办事处,06:00:00,18:00:00,106.524153,29.385368,404.448,V014线,1,2025-06-30 06:00:00,2025-06-30 06:26:00,51.633,78.0,119.628,522.69,1562294.0,2025-06-30 04:43:00,小型面包车
2025-06-30,OM25062800002662,重庆农村商业银行股份有限公司巴南支行,06:00:00,18:00:00,106.544137,29.415566,0.0,V014线,2,2025-06-30 06:51:00,2025-06-30 07:11:00,16.61,22.0,,,,,小型面包车
2025-06-30,OM25062900002616,重庆农村商业银行股份有限公司巴南支行,06:00:00,18:00:00,106.544137,29.415566,546.262,V014线,3,2025-06-30 06:20:00,2025-06-30 06:49:00,0.0,0.0,,,,,小型面包车
2025-06-30,OM25062900003613,重庆农村商业银行股份有限公司巴南支行,06:00:00,18:00:00,106.544137,29.415566,104.628,V014线,4,2025-06-30 06:49:00,2025-06-30 07:10:00,0.0,0.0,,,,,小型面包车
2025-06-30,OM25062900004258,烤匠巴南万达广场店-员工餐,06:00:00,18:00:00,106.551076,29.405264,9.454,V014线,5,2025-06-30 07:12:00,2025-06-30 07:32:00,1.325,1.0,,,,,小型面包车
2025-06-30,OM25062900005339,烤匠巴南万达广场店,06:00:00,18:00:00,106.551076,29.405264,25.825,V014线,6,2025-06-30 06:20:00,2025-06-30 06:41:00,0.001,1.0,,,,,小型面包车
2025-06-30,OM25062900006021,烤匠巴南万达广场店,06:00:00,18:00:00,106.551076,29.405264,0.0,V014线,7,2025-06-30 06:41:00,2025-06-30 07:01:00,0.001,1.0,,,,,小型面包车
2025-06-30,OW25062900001075,重庆市教育科学研究院,06:00:00,18:00:00,106.549354,29.560878,471.677,V014线,8,2025-06-30 07:32:00,2025-06-30 07:59:00,21.239,37.0,,,,,小型面包车
2025-06-30,OM25062700002601,重庆三峰卡万塔环境产业有限公司二,06:00:00,18:00:00,106.494448,29.454464,1311.965,V023线,1,2025-06-30 06:00:00,2025-06-30 06:48:00,40.951,60.0,89.455,261.4,2184528.0,2025-06-30 05:00:00,大型面包车
2025-06-30,OM25062700003666,重庆三峰卡万塔环境产业有限公司,06:00:00,18:00:00,106.494448,29.454464,220.9,V023线,2,2025-06-30 06:49:00,2025-06-30 07:12:00,0.001,1.0,,,,,大型面包车
2025-06-30,OW25062900001092,重庆嘉威啤酒有限公司,06:00:00,18:00:00,106.49045,29.455114,651.663,V023线,3,2025-06-30 07:21:00,2025-06-30 07:52:00,3.776,9.0,,,,,大型面包车
2025-06-30,OM25062700004921,重庆三峰卡万塔环境产业有限公司三,06:00:00,18:00:00,106.494448,29.454464,0.0,V023线,4,2025-06-30 08:01:00,2025-06-30 08:21:00,3.776,9.0,,,,,大型面包车
2025-06-30,OW25062600001162,交大幼-副食类,06:00:00,18:00:00,106.580033,29.494323,21.95,V015线,1,2025-06-30 06:00:00,2025-06-30 06:20:00,38.132,59.0,94.752,359.78,718771.0,2025-06-30 05:01:00,小型面包车
2025-06-30,OM25062000005494,中国人民解放军78007部队,06:00:00,18:00:00,106.569953,29.481373,0.0,V015线,2,2025-06-30 06:29:00,2025-06-30 06:49:00,3.78,9.0,,,,,小型面包车
2025-06-30,OM25062500009183,重庆市巴南区房屋征收中心,06:00:00,18:00:00,106.563185,29.465776,70.559,V015线,3,2025-06-30 06:54:00,2025-06-30 07:15:00,2.079,5.0,,,,,小型面包车
2025-06-30,OM25062900004666,中国人民解放军77728部队,06:00:00,18:00:00,106.562973,29.466024,184.209,V015线,4,2025-06-30 07:21:00,2025-06-30 07:44:00,2.056,6.0,,,,,小型面包车
2025-06-30,OM25062900005810,中国人民解放军32605部队-八公里车材站点,06:00:00,18:00:00,106.565944,29.48888,200.997,V015线,5,2025-06-30 07:58:00,2025-06-30 08:21:00,6.203,14.0,,,,,小型面包车
2025-06-30,OM25062900007097,252513-巴南站点,06:00:00,18:00:00,106.566114,29.488635,128.775,V015线,6,2025-06-30 08:25:00,2025-06-30 08:47:00,1.027,4.0,,,,,小型面包车
2025-06-30,OW25062600001160,交大幼-蔬菜类,06:00:00,18:00:00,106.580033,29.494323,83.237,V015线,7,2025-06-30 08:58:00,2025-06-30 09:19:00,3.341,11.0,,,,,小型面包车
2025-06-30,OW25062600000176,交大幼-荤食类,06:00:00,18:00:00,106.580033,29.494323,10.944,V015线,8,2025-06-30 09:20:00,2025-06-30 09:41:00,0.001,1.0,,,,,小型面包车
2025-06-30,OW25062700000092,交大幼-荤食类,06:00:00,18:00:00,106.580033,29.494323,18.1,V015线,9,2025-06-30 09:42:00,2025-06-30 10:02:00,0.001,1.0,,,,,小型面包车
2025-06-30,OM25062700002925,重庆市大渡口区八桥镇人民政府,06:00:00,18:00:00,106.487723,29.464073,384.541,V016线,1,2025-06-30 06:00:00,2025-06-30 06:26:00,35.99,58.0,132.851,479.72,749232.0,2025-06-30 05:06:00,小型面包车
2025-06-30,OM25062700004784,重庆市九龙坡区人民政府中梁山街道办事处,06:00:00,18:00:00,106.450784,29.46597,336.345,V016线,2,2025-06-30 06:33:00,2025-06-30 06:58:00,5.055,16.0,,,,,小型面包车
2025-06-30,OM25062900000465,二号线白居寺车辆段,06:00:00,18:00:00,106.441199,29.397201,0.0,V016线,3,2025-06-30 06:38:00,2025-06-30 06:58:00,8.658,16.0,,,,,小型面包车
2025-06-30,OM25062900002679,窑瓦溪幼儿园-教师,06:00:00,18:00:00,106.333688,29.317011,23.49,V016线,4,2025-06-30 07:40:00,2025-06-30 08:00:00,27.977,46.0,,,,,小型面包车
2025-06-30,OW25062900000011,重庆九龙坡区窑瓦溪幼儿园,06:00:00,18:00:00,106.333688,29.317011,2.75,V016线,5,2025-06-30 06:20:00,2025-06-30 06:40:00,0.001,1.0,,,,,小型面包车
2025-06-30,OW25062900000012,重庆九龙坡区窑瓦溪幼儿园,06:00:00,18:00:00,106.333688,29.317011,2.106,V016线,6,2025-06-30 06:40:00,2025-06-30 07:00:00,0.001,1.0,,,,,小型面包车
2025-06-30,OM25062700000809,九龙坡铁路幼儿园,06:00:00,18:00:00,106.545594,29.500913,154.285,V017线,1,2025-06-30 06:00:00,2025-06-30 06:22:00,34.928,53.0,71.219,497.89,230223.0,2025-06-30 05:08:00,小型面包车
2025-06-30,OM25062700001801,九龙坡铁路幼儿园,06:00:00,18:00:00,106.545594,29.500913,18.8,V017线,2,2025-06-30 06:22:00,2025-06-30 06:43:00,0.0,0.0,,,,,小型面包车
2025-06-30,OW25062700000104,静苑观江岭幼儿园,06:00:00,18:00:00,106.541018,29.504005,42.634,V017线,3,2025-06-30 06:43:00,2025-06-30 07:04:00,0.406,1.0,,,,,小型面包车
2025-06-30,OW25062700001111,静苑观江岭幼儿园-教师,06:00:00,18:00:00,106.541018,29.504005,14.504,V017线,4,2025-06-30 07:05:00,2025-06-30 07:25:00,0.75,2.0,,,,,小型面包车
2025-06-30,OM25062700001673,重庆志阳电气有限公司,06:00:00,18:00:00,106.645588,29.765431,196.592,V018线,1,2025-06-30 06:00:00,2025-06-30 06:23:00,37.911,59.0,86.481,500.56,513703.0,2025-06-30 05:03:00,小型面包车
2025-06-30,OM25062900005899,渝北中队,06:00:00,18:00:00,106.636653,29.792881,169.183,V018线,2,2025-06-30 06:30:00,2025-06-30 06:53:00,5.025,11.0,,,,,小型面包车
2025-06-30,OW25062700000040,渝北区交巡警-双凤大队,06:00:00,18:00:00,106.63903,29.741647,147.928,V018线,3,2025-06-30 07:06:00,2025-06-30 07:29:00,8.896,18.0,,,,,小型面包车
2025-06-30,OM25062900000365,重庆市綦江区益恒环保科技有限公司,06:00:00,18:00:00,106.648847,29.089485,276.099,V019线,1,2025-06-30 06:00:00,2025-06-30 06:24:00,100.195,156.0,206.249,546.08,1664041.0,2025-06-30 03:30:00,小型面包车
2025-06-30,OM25062900004495,重庆市公安局巴南区分局业务技术用房食堂,06:00:00,18:00:00,106.540238,29.37809,343.22,V019线,2,2025-06-30 07:41:00,2025-06-30 08:06:00,51.416,81.0,,,,,小型面包车
2025-06-30,OM25062900004496,重庆市公安局巴南区分局业务技术用房食堂,06:00:00,18:00:00,106.540238,29.37809,830.502,V019线,3,2025-06-30 06:25:00,2025-06-30 07:01:00,0.0,0.0,,,,,小型面包车
2025-06-30,OM25062900005567,重庆市公安局巴南区分局业务技术用房食堂,06:00:00,18:00:00,106.540238,29.37809,0.0,V019线,4,2025-06-30 07:01:00,2025-06-30 07:21:00,0.0,0.0,,,,,小型面包车
2025-06-30,OW25062800001010,重庆嘉威啤酒—集团,06:00:00,18:00:00,106.484729,29.458992,214.22,V019线,5,2025-06-30 07:48:00,2025-06-30 08:11:00,18.077,27.0,,,,,小型面包车
2025-06-30,OM25062700004040,保税港港欣8号餐厅—果园西区,06:00:00,18:00:00,106.744944,29.609495,597.899,V024线,1,2025-06-30 06:00:00,2025-06-30 06:30:00,47.616,59.0,121.528,529.22,2866095.0,2025-06-30 04:49:00,大型面包车
2025-06-30,OM25062700006006,重庆顺泰铁塔制造有限公司-蔬菜,06:00:00,18:00:00,106.641637,29.612773,1337.388,V024线,2,2025-06-30 07:02:00,2025-06-30 07:50:00,21.144,31.0,,,,,大型面包车
2025-06-30,OM25062700007031,重庆顺泰铁塔制造有限公司-干副,06:00:00,18:00:00,106.641637,29.612773,73.8,V024线,3,2025-06-30 06:48:00,2025-06-30 07:10:00,0.001,1.0,,,,,大型面包车
2025-06-30,OM25062800004938,铁山坪三楼食堂-调味品类,06:00:00,18:00:00,106.682204,29.624552,75.0,V024线,4,2025-06-30 07:25:00,2025-06-30 07:46:00,10.121,18.0,,,,,大型面包车
2025-06-30,OM25062800004945,铁山坪二楼食堂-调味品类,06:00:00,18:00:00,106.682204,29.624552,58.7,V024线,5,2025-06-30 06:21:00,2025-06-30 06:42:00,0.001,1.0,,,,,大型面包车
2025-06-30,OM25062800005880,铁山坪二楼食堂-面食,06:00:00,18:00:00,106.682204,29.624552,276.47,V024线,6,2025-06-30 06:42:00,2025-06-30 07:06:00,0.001,1.0,,,,,大型面包车
2025-06-30,OM25062900004012,铁山坪一楼食堂-面食类,06:00:00,18:00:00,106.682204,29.624552,100.5,V024线,7,2025-06-30 07:06:00,2025-06-30 07:28:00,0.001,1.0,,,,,大型面包车
2025-06-30,OM25062900005633,十二中队,06:00:00,18:00:00,106.674507,29.613793,346.338,V024线,8,2025-06-30 07:32:00,2025-06-30 07:57:00,2.573,9.0,,,,,大型面包车
2025-06-30,OM25062900003913,重庆市地质矿产勘查开发局607地质队,06:00:00,18:00:00,106.568891,29.47107,215.622,V020线,1,2025-06-30 06:00:00,2025-06-30 06:23:00,40.786,63.0,105.602,337.22,881490.0,2025-06-30 04:57:00,小型面包车
2025-06-30,OM25061500000013,重庆中国三峡博物馆-丹回路,06:00:00,18:00:00,106.556809,29.517229,0.0,V020线,2,2025-06-30 06:42:00,2025-06-30 07:02:00,8.959,19.0,,,,,小型面包车
2025-06-30,OM25062900001987,重庆中国三峡博物馆-丹回路,06:00:00,18:00:00,106.556809,29.517229,214.665,V020线,3,2025-06-30 07:02:00,2025-06-30 07:25:00,0.0,0.0,,,,,小型面包车
2025-06-30,OM25062900003673,渝南大道30号一食堂,06:00:00,18:00:00,106.56976,29.481127,332.979,V020线,4,2025-06-30 07:41:00,2025-06-30 08:06:00,7.41,16.0,,,,,小型面包车
2025-06-30,OM25062900004329,中国人民解放军78007部队,06:00:00,18:00:00,106.569953,29.481373,69.455,V020线,5,2025-06-30 08:07:00,2025-06-30 08:28:00,0.037,1.0,,,,,小型面包车
2025-06-30,OM25062900004953,中国人民解放军32605部队-保障四队3号食堂 六公里站点,06:00:00,18:00:00,106.583895,29.494683,18.908,V020线,6,2025-06-30 08:40:00,2025-06-30 09:01:00,4.675,12.0,,,,,小型面包车
2025-06-30,OM25062900006047,中国人民解放军32605部队-保障四队2号食堂 六公里站点,06:00:00,18:00:00,106.580008,29.505844,29.861,V020线,7,2025-06-30 09:18:00,2025-06-30 09:38:00,6.665,17.0,,,,,小型面包车
2025-06-30,OM25062700002652,重庆农村商业银行股份有限公司南岸支行,06:00:00,18:00:00,106.549381,29.52491,65.665,V025线,1,2025-06-30 06:00:00,2025-06-30 06:21:00,33.452,51.0,73.481,219.35,690275.0,2025-06-30 05:09:00,大型面包车
2025-06-30,OM25062700006017,重庆农村商业银行股份有限公司南岸支行,06:00:00,18:00:00,106.549381,29.52491,366.101,V025线,2,2025-06-30 06:21:00,2025-06-30 06:46:00,0.0,0.0,,,,,大型面包车
2025-06-30,OM25062900005079,中信银行-经开支行（日配）,06:00:00,18:00:00,106.568756,29.536444,118.35,V025线,3,2025-06-30 06:59:00,2025-06-30 07:21:00,3.028,13.0,,,,,大型面包车
2025-06-30,OM25062900005897,中建三局-联发三湾项目,06:00:00,18:00:00,106.521366,29.574211,140.159,V025线,4,2025-06-30 07:47:00,2025-06-30 08:09:00,12.274,26.0,,,,,大型面包车
2025-06-30,OM25062800003739,招商万桥（重庆）科技有限公司,06:00:00,18:00:00,106.69207,29.535359,605.868,V026线,1,2025-06-30 06:00:00,2025-06-30 06:30:00,43.202,58.0,97.849,227.66,1880084.0,2025-06-30 05:02:00,大型面包车
2025-06-30,OM25062900003430,中铁一局-客机所,06:00:00,18:00:00,106.713794,29.5046,34.36,V026线,2,2025-06-30 06:42:00,2025-06-30 07:03:00,6.124,12.0,,,,,大型面包车
2025-06-30,OM25062900004530,十四中队,06:00:00,18:00:00,106.62169,29.577863,1239.856,V026线,3,2025-06-30 07:20:00,2025-06-30 08:06:00,16.007,17.0,,,,,大型面包车
2025-06-30,OM25062700002103,两江物业—职能中心食堂,06:00:00,18:00:00,106.820019,29.693393,0.0,V027线,1,2025-06-30 06:00:00,2025-06-30 06:20:00,52.134,61.0,117.18,511.82,1632217.0,2025-06-30 04:42:00,大型面包车
2025-06-30,OM25062900000975,两江物业—职能中心食堂,06:00:00,18:00:00,106.820019,29.693393,204.326,V027线,2,2025-06-30 06:20:00,2025-06-30 06:43:00,0.0,0.0,,,,,大型面包车
2025-06-30,OM25062900002660,重庆裕同印刷包装有限公司-新厂,06:00:00,18:00:00,106.667904,29.670764,78.892,V027线,3,2025-06-30 07:18:00,2025-06-30 07:39:00,23.102,26.0,,,,,大型面包车
2025-06-30,OM25062900002752,重庆建工建材物流有限公司-总部,06:00:00,18:00:00,106.670684,29.635736,299.414,V027线,4,2025-06-30 06:29:00,2025-06-30 06:54:00,5.388,10.0,,,,,大型面包车
2025-06-30,OM25062900004069,考试中心（西南基地水果）,06:00:00,18:00:00,106.670156,29.633609,187.095,V027线,5,2025-06-30 06:25:00,2025-06-30 06:48:00,0.191,1.0,,,,,大型面包车
2025-06-30,OM25062900004073,考试中心（西南基地干副）,06:00:00,18:00:00,106.670156,29.633609,102.0,V027线,6,2025-06-30 06:23:00,2025-06-30 06:44:00,0.001,1.0,,,,,大型面包车
2025-06-30,OM25062900004078,考试中心（西南基地菜）,06:00:00,18:00:00,106.670156,29.633609,462.973,V027线,7,2025-06-30 06:44:00,2025-06-30 07:11:00,0.001,1.0,,,,,大型面包车
2025-06-30,OM25062900004081,考试中心（西南基地水果）,06:00:00,18:00:00,106.670156,29.633609,32.94,V027线,8,2025-06-30 07:11:00,2025-06-30 07:32:00,0.001,1.0,,,,,大型面包车
2025-06-30,OM25062900005140,考试中心（西南基地冻货）,06:00:00,18:00:00,106.670156,29.633609,193.665,V027线,9,2025-06-30 07:32:00,2025-06-30 07:55:00,0.001,1.0,,,,,大型面包车
2025-06-30,OM25062900005147,考试中心（西南基地肉）,06:00:00,18:00:00,106.670156,29.633609,70.912,V027线,10,2025-06-30 07:55:00,2025-06-30 08:16:00,0.001,1.0,,,,,大型面包车
2025-06-30,OM25062900005571,重庆市安全生产考试中心-西南基地,06:00:00,18:00:00,106.669364,29.633076,0.0,V027线,11,2025-06-30 08:16:00,2025-06-30 08:36:00,0.06,1.0,,,,,大型面包车
2025-06-30,OM25062700006547,渝中区红岩幼儿园-老师,06:00:00,18:00:00,106.590121,29.568028,98.715,V028线,1,2025-06-30 06:00:00,2025-06-30 06:21:00,34.081,56.0,68.09,262.35,356646.0,2025-06-30 05:04:00,大型面包车
2025-06-30,OM25062700007584,渝中区红岩幼儿园-老师,06:00:00,18:00:00,106.590121,29.568028,11.808,V028线,2,2025-06-30 06:21:00,2025-06-30 06:42:00,0.0,0.0,,,,,大型面包车
2025-06-30,OM25062900002840,新大正物业集团股份有限公司（证监局）,06:00:00,18:00:00,106.587073,29.565019,94.65,V028线,3,2025-06-30 06:45:00,2025-06-30 07:06:00,0.419,3.0,,,,,大型面包车
2025-06-30,OM25062900004271,烤匠时代广场,06:00:00,18:00:00,106.583643,29.564171,25.495,V028线,4,2025-06-30 07:08:00,2025-06-30 07:28:00,0.494,2.0,,,,,大型面包车
2025-06-30,OM25062900002843,新大正物业集团股份有限公司（证监局）,06:00:00,18:00:00,106.587073,29.565019,111.68,V028线,5,2025-06-30 07:30:00,2025-06-30 07:52:00,0.494,2.0,,,,,大型面包车
2025-06-30,OM25062900005328,烤匠时代广场-员工餐,06:00:00,18:00:00,106.583643,29.564171,14.298,V028线,6,2025-06-30 07:54:00,2025-06-30 08:14:00,0.494,2.0,,,,,大型面包车
2025-06-30,OM25062900006019,烤匠时代广场,06:00:00,18:00:00,106.583643,29.564171,0.0,V028线,7,2025-06-30 08:15:00,2025-06-30 08:35:00,0.001,1.0,,,,,大型面包车
2025-06-30,OM25062800005250,中国人民解放军重庆市九龙坡区武装部（市区指挥中心）,06:00:00,18:00:00,106.518865,29.504375,148.177,V029线,1,2025-06-30 06:00:00,2025-06-30 06:22:00,33.118,48.0,76.002,190.03,401859.0,2025-06-30 05:12:00,大型面包车
2025-06-30,OM25062900005311,烤匠万象城-员工餐,06:00:00,18:00:00,106.524528,29.522457,10.212,V029线,2,2025-06-30 06:30:00,2025-06-30 06:50:00,4.053,8.0,,,,,大型面包车
2025-06-30,OM25062900005697,大堰综合基地,06:00:00,18:00:00,106.506674,29.504412,243.47,V029线,3,2025-06-30 07:05:00,2025-06-30 07:29:00,5.466,15.0,,,,,大型面包车
2025-06-30,OM25062700001378,重庆市渝北区人民政府双龙湖街道办事处,06:00:00,18:00:00,106.633012,29.717755,0.0,V030线,1,2025-06-30 06:00:00,2025-06-30 06:20:00,31.877,47.0,76.969,199.69,1107542.0,2025-06-30 05:13:00,大型面包车
2025-06-30,OM25062900004485,重庆市渝北区人民政府双龙湖街道办事处,06:00:00,18:00:00,106.633012,29.717755,531.125,V030线,2,2025-06-30 06:20:00,2025-06-30 06:48:00,0.0,0.0,,,,,大型面包车
2025-06-30,OM25062700007802,重庆市人口与家庭发展研究中心,06:00:00,18:00:00,106.609065,29.657856,576.417,V030线,3,2025-06-30 07:22:00,2025-06-30 07:52:00,14.646,34.0,,,,,大型面包车
2025-06-30,OM25062700005893,重庆市九龙坡区文化馆,06:00:00,18:00:00,106.512547,29.511351,54.64,V031线,1,2025-06-30 06:00:00,2025-06-30 06:21:00,31.625,46.0,67.289,174.71,113691.0,2025-06-30 05:14:00,大型面包车
2025-06-30,OM25062900004498,重庆市九龙坡区图书馆,06:00:00,18:00:00,106.51228,29.511585,54.905,V031线,2,2025-06-30 06:22:00,2025-06-30 06:43:00,0.088,1.0,,,,,大型面包车
2025-06-30,OM25062700006559,幼儿食材,06:00:00,18:00:00,106.524603,29.541083,4.146,V031线,3,2025-06-30 06:59:00,2025-06-30 07:19:00,4.852,16.0,,,,,大型面包车
2025-06-30,OM25062900005175,教导队,06:00:00,18:00:00,106.591886,29.533428,711.44,V032线,1,2025-06-30 06:00:00,2025-06-30 06:33:00,36.53,60.0,75.088,202.79,711440.0,2025-06-30 05:00:00,大型面包车
2025-06-30,OM25062700003916,长江重庆航道工程局,06:00:00,18:00:00,106.591757,29.56081,0.0,V032线,2,2025-06-30 07:03:00,2025-06-30 07:23:00,6.003,30.0,,,,,大型面包车
2025-06-30,OM25062800001781,渝北三号桥食堂,06:00:00,18:00:00,106.632519,29.713308,71.225,V033线,1,2025-06-30 06:00:00,2025-06-30 06:21:00,32.403,49.0,73.366,252.24,949422.0,2025-06-30 05:11:00,大型面包车
2025-06-30,OM25062900000985,渝北三号桥食堂,06:00:00,18:00:00,106.632519,29.713308,287.125,V033线,2,2025-06-30 06:21:00,2025-06-30 06:45:00,0.0,0.0,,,,,大型面包车
2025-06-30,OM25062900002569,重庆市渝北区科学技术协会,06:00:00,18:00:00,106.634226,29.719035,55.293,V033线,3,2025-06-30 06:53:00,2025-06-30 07:14:00,1.965,8.0,,,,,大型面包车
2025-06-30,OW25062900001185,渝北区交巡警-两路大队,06:00:00,18:00:00,106.63687,29.726257,21.215,V033线,4,2025-06-30 07:23:00,2025-06-30 07:44:00,2.823,9.0,,,,,大型面包车
2025-06-30,OW25062900000189,渝北区交巡警-两路大队,06:00:00,18:00:00,106.63687,29.726257,77.952,V033线,5,2025-06-30 07:44:00,2025-06-30 08:05:00,0.0,0.0,,,,,大型面包车
2025-06-30,OM25062900005626,九中队,06:00:00,18:00:00,106.646695,29.732439,436.612,V033线,6,2025-06-30 08:09:00,2025-06-30 08:35:00,1.304,4.0,,,,,大型面包车
2025-06-30,OM25062900000473,重庆市渝中区文化和旅游发展委员会,06:00:00,18:00:00,106.573154,29.560096,32.125,V034线,1,2025-06-30 06:00:00,2025-06-30 06:20:00,31.418,50.0,66.878,476.75,237403.0,2025-06-30 05:13:00,大型面包车
2025-06-30,OM25062900003245,重庆市渝中区文化和旅游发展委员会,06:00:00,18:00:00,106.573154,29.560096,115.944,V034线,2,2025-06-30 06:20:00,2025-06-30 06:42:00,0.0,0.0,,,,,大型面包车
2025-06-30,OM25062900005653,联勤保障部队第三储备资产管理局重庆管理站,06:00:00,18:00:00,106.575413,29.562376,89.334,V034线,3,2025-06-30 06:46:00,2025-06-30 07:08:00,2.85,8.0,,,,,大型面包车
2025-06-30,OM25062700001729,重庆市九龙坡区数字化城市管理中心,06:00:00,18:00:00,106.532099,29.51222,108.415,V035线,1,2025-06-30 06:00:00,2025-06-30 06:22:00,32.507,49.0,94.683,335.07,871157.0,2025-06-30 05:11:00,大型面包车
2025-06-30,OM25062700003112,重庆市九龙坡区环境卫生管理处,06:00:00,18:00:00,106.515357,29.501573,228.477,V035线,2,2025-06-30 06:31:00,2025-06-30 06:54:00,2.999,9.0,,,,,大型面包车
2025-06-30,OM25062800001921,重庆凯源石油天然气有限责任公司巴南分公司,06:00:00,18:00:00,106.527229,29.467279,0.0,V035线,3,2025-06-30 07:14:00,2025-06-30 07:34:00,7.227,20.0,,,,,大型面包车
2025-06-30,OM25062800001926,重庆凯源石油天然气有限责任公司巴南分公司,06:00:00,18:00:00,106.527229,29.467279,4.5,V035线,4,2025-06-30 07:34:00,2025-06-30 07:54:00,0.0,0.0,,,,,大型面包车
2025-06-30,OM25062900004502,重庆凯源石油天然气有限责任公司巴南分公司,06:00:00,18:00:00,106.527229,29.467279,209.468,V035线,5,2025-06-30 07:54:00,2025-06-30 08:17:00,0.0,0.0,,,,,大型面包车
2025-06-30,OM25062900004929,烤匠万象城,06:00:00,18:00:00,106.524528,29.522457,0.0,V035线,6,2025-06-30 08:35:00,2025-06-30 08:55:00,10.629,18.0,,,,,大型面包车
2025-06-30,OM25062900003398,重庆市九龙坡区人民政府石坪桥街道办事处,06:00:00,18:00:00,106.517023,29.508059,303.157,V035线,7,2025-06-30 09:05:00,2025-06-30 09:30:00,4.794,10.0,,,,,大型面包车
2025-06-30,OM25062900005331,烤匠万象城,06:00:00,18:00:00,106.524528,29.522457,17.14,V035线,8,2025-06-30 09:40:00,2025-06-30 10:00:00,4.794,10.0,,,,,大型面包车
2025-06-30,OM25062900001340,川仪自动化股份-北环园区单位食堂,06:00:00,18:00:00,106.499084,29.620278,48.0,V036线,1,2025-06-30 06:00:00,2025-06-30 06:21:00,19.145,28.0,77.937,228.67,1233223.0,2025-06-30 05:32:00,大型面包车
2025-06-30,OM25062700006803,重庆百事天府饮料有限公司,06:00:00,18:00:00,106.609572,29.665203,917.446,V036线,2,2025-06-30 06:59:00,2025-06-30 07:37:00,21.269,38.0,,,,,大型面包车
2025-06-30,OM25062900004894,十一中队,06:00:00,18:00:00,106.631277,29.685932,214.506,V036线,3,2025-06-30 07:48:00,2025-06-30 08:11:00,3.901,11.0,,,,,大型面包车
2025-06-30,OM25062900002536,重庆市渝北区救助管理站,06:00:00,18:00:00,106.626249,29.676689,53.271,V036线,4,2025-06-30 08:17:00,2025-06-30 08:38:00,1.919,6.0,,,,,大型面包车
2025-06-30,OM25062700001814,重庆市南岸区房屋征收中心,06:00:00,18:00:00,106.587459,29.543327,139.22,V037线,1,2025-06-30 06:00:00,2025-06-30 06:22:00,34.481,52.0,76.427,501.42,355836.0,2025-06-30 05:08:00,大型面包车
2025-06-30,OM25062700005767,中信银行-南坪支行(日配）,06:00:00,18:00:00,106.581698,29.520627,112.966,V037线,2,2025-06-30 06:27:00,2025-06-30 06:49:00,3.167,8.0,,,,,大型面包车
2025-06-30,OM25062900004521,重庆第二师范学院-2楼,06:00:00,18:00:00,106.581872,29.517908,45.775,V037线,3,2025-06-30 06:24:00,2025-06-30 06:45:00,1.465,7.0,,,,,大型面包车
2025-06-30,OM25062900005610,重庆第二师范学院-1楼,06:00:00,18:00:00,106.581872,29.517908,47.875,V037线,4,2025-06-30 06:45:00,2025-06-30 07:05:00,0.114,1.0,,,,,大型面包车
2025-06-30,OM25062900006008,重庆颐天康养产业发展有限公司,06:00:00,18:00:00,106.556505,29.562989,10.0,V037线,5,2025-06-30 07:18:00,2025-06-30 07:38:00,8.075,18.0,,,,,大型面包车
2025-06-30,OM25062700004072,重庆两江新区水土高新技术产业园建设投资有限公司,06:00:00,18:00:00,106.535587,29.807428,97.425,V038线,1,2025-06-30 06:00:00,2025-06-30 06:21:00,30.047,36.0,104.405,273.16,1891204.0,2025-06-30 05:24:00,大型面包车
2025-06-30,OM25062700005136,重庆两江新区水土高新技术产业园建设投资有限公司,06:00:00,18:00:00,106.535587,29.807428,1079.049,V038线,2,2025-06-30 06:21:00,2025-06-30 07:03:00,0.0,0.0,,,,,大型面包车
2025-06-30,OM25062900002292,重庆市正源水务工程质量检测有限责任公司,06:00:00,18:00:00,106.540485,29.827536,219.422,V038线,3,2025-06-30 07:13:00,2025-06-30 07:37:00,3.519,10.0,,,,,大型面包车
2025-06-30,OM25062800002705,柳荫法庭,06:00:00,18:00:00,106.611387,29.958465,24.816,V038线,4,2025-06-30 08:06:00,2025-06-30 08:26:00,19.811,29.0,,,,,大型面包车
2025-06-30,OM25062900005196,重庆市应能应急救援有限公司（直属支队）,06:00:00,18:00:00,106.542752,29.816575,470.492,V038线,5,2025-06-30 08:53:00,2025-06-30 09:20:00,19.785,27.0,,,,,大型面包车
2025-06-30,OM25062700007600,聘用教师食材,06:00:00,18:00:00,106.524603,29.541083,15.7,V039线,1,2025-06-30 06:00:00,2025-06-30 06:20:00,30.724,50.0,66.916,318.59,1090391.0,2025-06-30 05:10:00,大型面包车
2025-06-30,OM25062800004446,电信老机关食堂,06:00:00,18:00:00,106.520534,29.545507,24.0,V039线,2,2025-06-30 06:26:00,2025-06-30 06:47:00,0.816,6.0,,,,,大型面包车
2025-06-30,OM25062900002077,中信银行-大坪支行（日配）,06:00:00,18:00:00,106.521073,29.540617,93.86,V039线,3,2025-06-30 06:55:00,2025-06-30 07:16:00,1.941,8.0,,,,,大型面包车
2025-06-30,OM25062900004274,烤匠时代天街-员工餐,06:00:00,18:00:00,106.517705,29.543923,2.88,V039线,4,2025-06-30 07:22:00,2025-06-30 07:42:00,1.094,6.0,,,,,大型面包车
2025-06-30,OM25062900003573,重庆建工第三建设有限责任公司,06:00:00,18:00:00,106.523517,29.537887,923.686,V039线,5,2025-06-30 07:50:00,2025-06-30 08:28:00,1.273,8.0,,,,,大型面包车
2025-06-30,OM25062900004927,烤匠时代天街-员工餐,06:00:00,18:00:00,106.517705,29.543923,3.765,V039线,6,2025-06-30 08:36:00,2025-06-30 08:56:00,1.273,8.0,,,,,大型面包车
2025-06-30,OM25062900004275,烤匠时代天街,06:00:00,18:00:00,106.517705,29.543923,21.375,V039线,7,2025-06-30 08:57:00,2025-06-30 09:18:00,0.007,1.0,,,,,大型面包车
2025-06-30,OM25062900006022,烤匠时代天街,06:00:00,18:00:00,106.517705,29.543923,5.125,V039线,8,2025-06-30 09:19:00,2025-06-30 09:39:00,0.007,1.0,,,,,大型面包车
2025-06-30,OM25062700000321,重庆金泰国有资产经营有限公司,06:00:00,18:00:00,106.794496,29.687276,232.192,V040线,1,2025-06-30 06:00:00,2025-06-30 06:23:00,47.71,56.0,108.286,296.29,1276500.0,2025-06-30 05:04:00,大型面包车
2025-06-30,OM25062700002413,重庆金泰国有资产经营有限公司,06:00:00,18:00:00,106.794496,29.687276,0.0,V040线,2,2025-06-30 06:23:00,2025-06-30 06:43:00,0.0,0.0,,,,,大型面包车
2025-06-30,OM25062900002507,耐德-龙兴,06:00:00,18:00:00,106.772502,29.681089,0.0,V040线,3,2025-06-30 06:51:00,2025-06-30 07:11:00,3.88,8.0,,,,,大型面包车
2025-06-30,OM25062700004669,耐德-龙兴,06:00:00,18:00:00,106.772502,29.681089,1014.308,V040线,4,2025-06-30 07:11:00,2025-06-30 07:52:00,0.0,0.0,,,,,大型面包车
2025-06-30,OM25062900003772,通远航务东区干副,06:00:00,18:00:00,106.658675,29.698841,30.0,V040线,5,2025-06-30 08:23:00,2025-06-30 08:43:00,21.806,31.0,,,,,大型面包车
2025-06-30,OM25062900007063,机场职工一食堂干副,06:00:00,18:00:00,106.656621,29.704052,0.0,V040线,6,2025-06-30 08:46:00,2025-06-30 09:06:00,1.063,3.0,,,,,大型面包车
2025-06-30,OM25062700006255,安诚财产保险股份有限公司-2楼,06:00:00,18:00:00,106.57571,29.580888,10.45,V041线,1,2025-06-30 06:00:00,2025-06-30 06:20:00,29.073,42.0,58.146,337.79,830682.0,2025-06-30 05:18:00,大型面包车
2025-06-30,OM25062700006266,安诚财产保险股份有限公司-2楼,06:00:00,18:00:00,106.57571,29.580888,0.0,V041线,2,2025-06-30 06:20:00,2025-06-30 06:40:00,0.0,0.0,,,,,大型面包车
2025-06-30,OM25062700006267,安诚财产保险股份有限公司-2楼,06:00:00,18:00:00,106.57571,29.580888,0.0,V041线,3,2025-06-30 06:40:00,2025-06-30 07:00:00,0.0,0.0,,,,,大型面包车
2025-06-30,OM25062700006268,安诚财产保险股份有限公司-2楼,06:00:00,18:00:00,106.57571,29.580888,45.88,V041线,4,2025-06-30 07:00:00,2025-06-30 07:21:00,0.0,0.0,,,,,大型面包车
2025-06-30,OM25062700006269,安诚财产保险股份有限公司-2楼,06:00:00,18:00:00,106.57571,29.580888,15.25,V041线,5,2025-06-30 07:21:00,2025-06-30 07:41:00,0.0,0.0,,,,,大型面包车
2025-06-30,OM25062700006270,安诚财产保险股份有限公司-2楼,06:00:00,18:00:00,106.57571,29.580888,34.396,V041线,6,2025-06-30 07:41:00,2025-06-30 08:02:00,0.0,0.0,,,,,大型面包车
2025-06-30,OM25062700006271,安诚财产保险股份有限公司-2楼,06:00:00,18:00:00,106.57571,29.580888,0.0,V041线,7,2025-06-30 08:02:00,2025-06-30 08:22:00,0.0,0.0,,,,,大型面包车
2025-06-30,OM25062700006304,安诚财产保险股份有限公司-2楼,06:00:00,18:00:00,106.57571,29.580888,0.0,V041线,8,2025-06-30 08:22:00,2025-06-30 08:42:00,0.0,0.0,,,,,大型面包车
2025-06-30,OM25062700007278,安诚财产保险股份有限公司-2楼,06:00:00,18:00:00,106.57571,29.580888,27.325,V041线,9,2025-06-30 08:42:00,2025-06-30 09:02:00,0.0,0.0,,,,,大型面包车
2025-06-30,OM25062700007280,安诚财产保险股份有限公司-2楼,06:00:00,18:00:00,106.57571,29.580888,0.0,V041线,10,2025-06-30 09:02:00,2025-06-30 09:22:00,0.0,0.0,,,,,大型面包车
2025-06-30,OM25062700007279,安诚财产保险股份有限公司-2楼,06:00:00,18:00:00,106.57571,29.580888,632.599,V041线,11,2025-06-30 09:22:00,2025-06-30 09:53:00,0.0,0.0,,,,,大型面包车
2025-06-30,OM25062700007281,安诚财产保险股份有限公司-2楼,06:00:00,18:00:00,106.57571,29.580888,64.782,V041线,12,2025-06-30 09:53:00,2025-06-30 10:14:00,0.0,0.0,,,,,大型面包车
2025-06-30,OM25062700000410,中国烟草总公司重庆市公司,06:00:00,18:00:00,106.56982,29.584005,3.4,V042线,1,2025-06-30 06:00:00,2025-06-30 06:20:00,29.26,42.0,78.612,238.91,1538120.0,2025-06-30 05:18:00,大型面包车
2025-06-30,OM25062700002377,保税港港欣1号餐厅,06:00:00,18:00:00,106.60369,29.632117,0.0,V042线,2,2025-06-30 06:38:00,2025-06-30 06:58:00,11.508,18.0,,,,,大型面包车
2025-06-30,OM25062900003748,保税港港欣1号餐厅,06:00:00,18:00:00,106.60369,29.632117,1284.099,V042线,3,2025-06-30 06:58:00,2025-06-30 07:45:00,0.0,0.0,,,,,大型面包车
2025-06-30,OM25062900005454,保税港港欣1号餐厅,06:00:00,18:00:00,106.60369,29.632117,26.549,V042线,4,2025-06-30 07:45:00,2025-06-30 08:06:00,0.0,0.0,,,,,大型面包车
2025-06-30,OM25062700001742,重庆康达环保产业（集团）有限公司,06:00:00,18:00:00,106.516043,29.622297,224.072,V042线,5,2025-06-30 08:28:00,2025-06-30 08:51:00,16.27,22.0,,,,,大型面包车
2025-06-30,OM25062900004580,三中队,06:00:00,18:00:00,106.483303,29.538618,151.374,V043线,1,2025-06-30 06:00:00,2025-06-30 06:22:00,29.665,46.0,59.188,174.38,1835814.0,2025-06-30 05:14:00,大型面包车
2025-06-30,OM25062800002222,重庆中机中联工程有限公司,06:00:00,18:00:00,106.489784,29.538306,1684.44,V043线,2,2025-06-30 06:25:00,2025-06-30 07:22:00,0.848,3.0,,,,,大型面包车
2025-06-30,OM25062700006552,重庆两江新区楠苑康复护理院有限公司,06:00:00,18:00:00,106.487157,29.628072,1193.885,V044线,1,2025-06-30 06:00:00,2025-06-30 06:45:00,16.318,21.0,70.536,310.33,2373988.0,2025-06-30 05:39:00,大型面包车
2025-06-30,OM25062700006558,教师食材,06:00:00,18:00:00,106.524603,29.541083,10.75,V044线,2,2025-06-30 07:19:00,2025-06-30 07:39:00,17.611,34.0,,,,,大型面包车
2025-06-30,OM25062900000937,中国人民解放军海军装备部驻广州地区军事代表局驻重庆地区第一军事代表室,06:00:00,18:00:00,106.522804,29.540642,578.069,V044线,3,2025-06-30 07:43:00,2025-06-30 08:12:00,1.482,4.0,,,,,大型面包车
2025-06-30,OM25062900004677,中国人民解放军32605 部队-警卫勤务连机关食堂,06:00:00,18:00:00,106.532194,29.544284,232.272,V044线,4,2025-06-30 08:18:00,2025-06-30 08:42:00,2.412,6.0,,,,,大型面包车
2025-06-30,OW25062600000205,重庆市渝中区锦程小金星幼儿园-学生,06:00:00,18:00:00,106.51192,29.545792,280.812,V044线,5,2025-06-30 08:55:00,2025-06-30 09:19:00,3.855,13.0,,,,,大型面包车
2025-06-30,OW25062600001195,重庆市渝中区锦程小金星幼儿园-老师,06:00:00,18:00:00,106.51192,29.545792,57.2,V044线,6,2025-06-30 09:20:00,2025-06-30 09:41:00,0.001,1.0,,,,,大型面包车
2025-06-30,OW25062600001201,重庆市渝中区锦程小金星幼儿园-学生,06:00:00,18:00:00,106.51192,29.545792,21.0,V044线,7,2025-06-30 09:42:00,2025-06-30 10:02:00,0.001,1.0,,,,,大型面包车
2025-06-30,OM25062700006781,重庆颐天康养产业发展有限公司,06:00:00,18:00:00,106.556505,29.562989,401.244,V045线,1,2025-06-30 06:00:00,2025-06-30 06:26:00,29.125,47.0,65.512,326.37,691503.0,2025-06-30 05:13:00,大型面包车
2025-06-30,OM25062800005656,重庆复旦中学附属幼儿园贰园-学生其他类,06:00:00,18:00:00,106.576256,29.557443,0.0,V045线,2,2025-06-30 06:41:00,2025-06-30 07:01:00,3.366,15.0,,,,,大型面包车
2025-06-30,OM25062900002642,重庆复旦中学附属幼儿园贰园-教师肉类,06:00:00,18:00:00,106.576256,29.557443,54.34,V045线,3,2025-06-30 07:02:00,2025-06-30 07:23:00,0.001,1.0,,,,,大型面包车
2025-06-30,OM25062900002645,重庆复旦中学附属幼儿园贰园-教师蔬菜类,06:00:00,18:00:00,106.576256,29.557443,125.755,V045线,4,2025-06-30 07:24:00,2025-06-30 07:46:00,0.001,1.0,,,,,大型面包车
2025-06-30,OM25062900003628,重庆复旦中学附属幼儿园贰园-教师水果类,06:00:00,18:00:00,106.576256,29.557443,41.65,V045线,5,2025-06-30 07:47:00,2025-06-30 08:07:00,0.001,1.0,,,,,大型面包车
2025-06-30,OM25062900002907,重庆复旦中学附属幼儿园贰园-教师粮食,06:00:00,18:00:00,106.576256,29.557443,0.0,V045线,6,2025-06-30 08:08:00,2025-06-30 08:28:00,0.001,1.0,,,,,大型面包车
2025-06-30,OM25062900002647,重庆复旦中学附属幼儿园贰园-教师油盐辅料,06:00:00,18:00:00,106.576256,29.557443,0.0,V045线,7,2025-06-30 08:29:00,2025-06-30 08:49:00,0.001,1.0,,,,,大型面包车
2025-06-30,OM25062900003636,重庆复旦中学附属幼儿园贰园-教师其他类,06:00:00,18:00:00,106.576256,29.557443,21.0,V045线,8,2025-06-30 08:50:00,2025-06-30 09:11:00,0.001,1.0,,,,,大型面包车
2025-06-30,OM25062900005006,中信银行-解放碑支行（日配）,06:00:00,18:00:00,106.582366,29.560835,47.514,V045线,9,2025-06-30 09:22:00,2025-06-30 09:42:00,1.293,11.0,,,,,大型面包车
2025-06-30,OM25062700006102,新大正物业集团股份有限公司-奶制品,06:00:00,18:00:00,106.55654,29.562133,0.0,V046线,1,2025-06-30 06:00:00,2025-06-30 06:20:00,29.353,48.0,78.536,338.09,1994913.0,2025-06-30 05:12:00,大型面包车
2025-06-30,OM25062700007061,新大正物业集团股份有限公司-肉类,06:00:00,18:00:00,106.55654,29.562133,259.17,V046线,2,2025-06-30 06:21:00,2025-06-30 06:45:00,0.001,1.0,,,,,大型面包车
2025-06-30,OM25062700007073,新大正物业集团股份有限公司-干副,06:00:00,18:00:00,106.55654,29.562133,105.0,V046线,3,2025-06-30 06:46:00,2025-06-30 07:07:00,0.001,1.0,,,,,大型面包车
2025-06-30,OM25062700007091,新大正物业股份有限公司-蔬菜,06:00:00,18:00:00,106.55654,29.562133,733.91,V046线,4,2025-06-30 07:08:00,2025-06-30 07:42:00,0.001,1.0,,,,,大型面包车
2025-06-30,OM25062900001938,重庆市南岸区市场监督管理局（日配）,06:00:00,18:00:00,106.573013,29.527648,582.543,V046线,5,2025-06-30 07:58:00,2025-06-30 08:27:00,6.742,16.0,,,,,大型面包车
2025-06-30,OM25062900004712,中国人民解放军32605部队-保障四队1号食堂 六公里站点,06:00:00,18:00:00,106.580548,29.503391,163.38,V046线,6,2025-06-30 08:37:00,2025-06-30 09:00:00,3.498,10.0,,,,,大型面包车
2025-06-30,OW25062900001007,重庆拓达建设（集团）有限公司,06:00:00,18:00:00,106.579601,29.502594,105.91,V046线,7,2025-06-30 09:01:00,2025-06-30 09:22:00,0.136,1.0,,,,,大型面包车
2025-06-30,OM25062900000542,两路口基地,06:00:00,18:00:00,106.554929,29.559583,45.0,V046线,8,2025-06-30 09:42:00,2025-06-30 10:03:00,10.027,20.0,,,,,大型面包车
2025-06-30,OM25062800003220,重庆中机中联工程有限公司,06:00:00,18:00:00,106.489784,29.538306,16.9,V047线,1,2025-06-30 06:00:00,2025-06-30 06:20:00,28.675,46.0,86.572,310.89,659649.0,2025-06-30 05:14:00,大型面包车
2025-06-30,OM25062800005685,沙环卫-转运科,06:00:00,18:00:00,106.461372,29.532614,130.365,V047线,2,2025-06-30 06:32:00,2025-06-30 06:54:00,6.043,12.0,,,,,大型面包车
2025-06-30,OM25062900002873,重庆市渝水水务机械有限公司,06:00:00,18:00:00,106.459658,29.479363,172.83,V047线,3,2025-06-30 07:12:00,2025-06-30 07:35:00,7.842,18.0,,,,,大型面包车
2025-06-30,OM25062900005188,重庆市巴渝学校,06:00:00,18:00:00,106.473143,29.49352,248.794,V047线,4,2025-06-30 07:48:00,2025-06-30 08:12:00,4.811,13.0,,,,,大型面包车
2025-06-30,OM25062900004122,重庆市巴渝学校,06:00:00,18:00:00,106.473143,29.49352,1.62,V047线,5,2025-06-30 08:12:00,2025-06-30 08:32:00,0.0,0.0,,,,,大型面包车
2025-06-30,OM25062900003159,中信银行股份有限公司重庆大渡口支行（日配）,06:00:00,18:00:00,106.48727,29.48285,89.14,V047线,6,2025-06-30 08:43:00,2025-06-30 09:04:00,3.374,11.0,,,,,大型面包车
2025-06-30,OM25062900005250,重庆市巴渝学校,06:00:00,18:00:00,106.473143,29.49352,0.0,V047线,7,2025-06-30 09:15:00,2025-06-30 09:35:00,3.374,11.0,,,,,大型面包车
2025-06-30,OM25062700006676,西南医院幼儿园,06:00:00,18:00:00,106.453589,29.540679,485.36,V048线,1,2025-06-30 06:00:00,2025-06-30 06:27:00,28.093,46.0,80.93,471.57,1139386.0,2025-06-30 05:18:00,大型面包车
2025-06-30,OM25062700007235,重庆市九龙坡区人民政府中梁山街道办事处,06:00:00,18:00:00,106.450784,29.46597,0.0,V048线,2,2025-06-30 06:45:00,2025-06-30 07:05:00,11.927,28.0,,,,,大型面包车
2025-06-30,OM25062900005176,重庆市血液中心,06:00:00,18:00:00,106.449057,29.448701,332.596,V048线,3,2025-06-30 06:23:00,2025-06-30 06:48:00,2.284,8.0,,,,,大型面包车
2025-06-30,OM25062900005934,中梁山基地,06:00:00,18:00:00,106.444222,29.44153,0.0,V048线,4,2025-06-30 06:52:00,2025-06-30 07:12:00,2.456,7.0,,,,,大型面包车
2025-06-30,OW25062800000074,恒大小金星幼儿园-学生,06:00:00,18:00:00,106.453207,29.481983,133.93,V048线,5,2025-06-30 07:20:00,2025-06-30 07:42:00,5.004,11.0,,,,,大型面包车
2025-06-30,OW25062800001070,恒大小金星幼儿园-老师,06:00:00,18:00:00,106.453207,29.481983,28.551,V048线,6,2025-06-30 06:22:00,2025-06-30 06:42:00,0.008,1.0,,,,,大型面包车
2025-06-30,OW25062900001036,重庆市沙坪坝区华彩幼儿园,06:00:00,18:00:00,106.457635,29.532843,158.949,V048线,7,2025-06-30 06:52:00,2025-06-30 07:14:00,6.293,17.0,,,,,大型面包车
2025-06-30,OM25062700005771,重庆市人民检察院第五分院,06:00:00,18:00:00,106.52288,29.550783,1301.419,V049线,1,2025-06-30 06:00:00,2025-06-30 06:48:00,29.736,47.0,70.104,271.01,1933044.0,2025-06-30 05:13:00,大型面包车
2025-06-30,OM25062900002748,重庆特园民主党派历史陈列馆,06:00:00,18:00:00,106.552594,29.56729,277.004,V049线,2,2025-06-30 06:52:00,2025-06-30 07:16:00,3.708,4.0,,,,,大型面包车
2025-06-30,OM25062900003464,中信银行-上清寺支行（日配）,06:00:00,18:00:00,106.554348,29.564521,115.475,V049线,3,2025-06-30 07:25:00,2025-06-30 07:46:00,2.472,9.0,,,,,大型面包车
2025-06-30,OM25062900004514,中国人民解放军32618部队,06:00:00,18:00:00,106.556975,29.56437,119.552,V049线,4,2025-06-30 07:47:00,2025-06-30 08:09:00,0.341,1.0,,,,,大型面包车
2025-06-30,OM25062900005627,口腔医院上清寺站点,06:00:00,18:00:00,106.553026,29.565573,0.0,V049线,5,2025-06-30 08:11:00,2025-06-30 08:31:00,0.492,2.0,,,,,大型面包车
2025-06-30,OM25062900007092,中国人民解放军32605部队-保障一队彭家花园食堂,06:00:00,18:00:00,106.520989,29.546478,119.594,V049线,6,2025-06-30 08:38:00,2025-06-30 09:00:00,4.199,7.0,,,,,大型面包车
2025-06-30,OM25062900003753,重庆曾家岩大桥建设管理有限公司_素菜,06:00:00,18:00:00,106.555505,29.571809,31.41,V050线,1,2025-06-30 06:00:00,2025-06-30 06:20:00,29.062,43.0,75.352,348.45,496594.0,2025-06-30 05:17:00,大型面包车
2025-06-30,OM25062900002766,重庆曾家岩大桥建设管理有限公司_荤菜,06:00:00,18:00:00,106.555505,29.571809,19.905,V050线,2,2025-06-30 06:21:00,2025-06-30 06:42:00,0.001,1.0,,,,,大型面包车
2025-06-30,OM25062900002322,重庆市渝中区城市管理综合行政执法支队,06:00:00,18:00:00,106.575754,29.559868,0.0,V050线,3,2025-06-30 07:05:00,2025-06-30 07:25:00,7.995,23.0,,,,,大型面包车
2025-06-30,OM25062800004682,重庆复旦中学附属幼儿园-学生其他类,06:00:00,18:00:00,106.583453,29.560892,0.0,V050线,4,2025-06-30 07:36:00,2025-06-30 07:56:00,1.58,11.0,,,,,大型面包车
2025-06-30,OM25062700004711,中信银行股份有限公司重庆渝中支行（日配）,06:00:00,18:00:00,106.580104,29.560173,73.946,V050线,5,2025-06-30 08:03:00,2025-06-30 08:24:00,1.017,7.0,,,,,大型面包车
2025-06-30,OM25062900003757,重庆曾家岩大桥建设管理有限公司_干副,06:00:00,18:00:00,106.555505,29.571809,22.56,V050线,6,2025-06-30 08:42:00,2025-06-30 09:02:00,4.181,18.0,,,,,大型面包车
2025-06-30,OM25062900003926,人民支路64号重庆市公路数据服务中心,06:00:00,18:00:00,106.560221,29.571241,197.458,V050线,7,2025-06-30 09:08:00,2025-06-30 09:31:00,1.21,6.0,,,,,大型面包车
2025-06-30,OM25062900004704,重庆市房地产交易事务中心,06:00:00,18:00:00,106.539747,29.5637,9.0,V050线,8,2025-06-30 09:38:00,2025-06-30 09:58:00,2.831,7.0,,,,,大型面包车
2025-06-30,OM25062900005788,重庆市房地产交易事务中心,06:00:00,18:00:00,106.539747,29.5637,142.315,V050线,9,2025-06-30 09:58:00,2025-06-30 10:20:00,0.0,0.0,,,,,大型面包车
2025-06-30,OM25061900007357,渝北区消防救援支队-支队机关,06:00:00,18:00:00,106.57485,29.733029,0.0,V051线,1,2025-06-30 06:00:00,2025-06-30 06:20:00,27.296,38.0,60.167,227.54,235933.0,2025-06-30 05:22:00,大型面包车
2025-06-30,OM25062900005336,烤匠大悦城-员工餐,06:00:00,18:00:00,106.57822,29.727912,0.954,V051线,2,2025-06-30 06:23:00,2025-06-30 06:43:00,1.41,3.0,,,,,大型面包车
2025-06-30,OM25062900004820,渝北区消防救援支队-支队机关,06:00:00,18:00:00,106.57485,29.733029,0.0,V051线,3,2025-06-30 06:46:00,2025-06-30 07:06:00,1.41,3.0,,,,,大型面包车
2025-06-30,OW25062700000022,重庆市渝北区盛果誉峰幼儿园,06:00:00,18:00:00,106.583455,29.7242,226.169,V051线,4,2025-06-30 07:16:00,2025-06-30 07:39:00,2.012,10.0,,,,,大型面包车
2025-06-30,OM25062900005338,烤匠大悦城,06:00:00,18:00:00,106.57822,29.727912,8.81,V051线,5,2025-06-30 07:49:00,2025-06-30 08:10:00,0.964,10.0,,,,,大型面包车
2025-06-30,OM25062900006020,烤匠大悦城,06:00:00,18:00:00,106.57822,29.727912,0.0,V051线,6,2025-06-30 08:11:00,2025-06-30 08:31:00,0.001,1.0,,,,,大型面包车
2025-06-30,OM25062700007827,重庆智飞生物制品股份有限公司,06:00:00,18:00:00,106.578811,29.583062,189.25,V052线,1,2025-06-30 06:00:00,2025-06-30 06:23:00,30.182,43.0,78.824,509.37,1160247.0,2025-06-30 05:15:00,大型面包车
2025-06-30,OM25062900002993,中国铁路设计集团有限公司（CQ）,06:00:00,18:00:00,106.575288,29.581245,173.309,V052线,2,2025-06-30 06:26:00,2025-06-30 06:48:00,1.949,4.0,,,,,大型面包车
2025-06-30,OM25062900004327,重庆建工集团股份有限公司-鸡冠石项目部,06:00:00,18:00:00,106.62307,29.614479,774.912,V052线,3,2025-06-30 07:03:00,2025-06-30 07:37:00,9.765,21.0,,,,,大型面包车
2025-06-30,OM25062900004932,烤匠IFS国金中心店,06:00:00,18:00:00,106.579994,29.583249,5.0,V052线,4,2025-06-30 06:44:00,2025-06-30 07:04:00,6.628,12.0,,,,,大型面包车
2025-06-30,OM25062900005312,烤匠IFS国金中心店,06:00:00,18:00:00,106.579994,29.583249,15.85,V052线,5,2025-06-30 06:20:00,2025-06-30 06:40:00,0.001,1.0,,,,,大型面包车
2025-06-30,OM25062900005329,烤匠IFS国金中心店-员工餐,06:00:00,18:00:00,106.579994,29.583249,1.926,V052线,6,2025-06-30 06:40:00,2025-06-30 07:00:00,0.001,1.0,,,,,大型面包车
2025-06-30,OM25062800000138,重庆市人口与家庭发展研究中心-耗材,06:00:00,18:00:00,106.609065,29.657856,2.0,V053线,1,2025-06-30 06:00:00,2025-06-30 06:20:00,30.446,41.0,77.921,206.73,448435.0,2025-06-30 05:19:00,大型面包车
2025-06-30,OM25062900003229,重庆市地震局,06:00:00,18:00:00,106.599907,29.648569,229.195,V053线,2,2025-06-30 06:28:00,2025-06-30 06:51:00,3.309,8.0,,,,,大型面包车
2025-06-30,OM25062900004539,重庆南岸腾龙幼儿园,06:00:00,18:00:00,106.603476,29.585712,35.19,V053线,3,2025-06-30 07:13:00,2025-06-30 07:34:00,11.672,22.0,,,,,大型面包车
2025-06-30,OM25062900005616,重庆南岸腾龙幼儿园,06:00:00,18:00:00,106.603476,29.585712,182.05,V053线,4,2025-06-30 07:34:00,2025-06-30 07:57:00,0.0,0.0,,,,,大型面包车
2025-06-30,OM25062700007434,重庆市渝北区体育事业发展中心,06:00:00,18:00:00,106.575232,29.723521,79.716,V054线,1,2025-06-30 06:00:00,2025-06-30 06:21:00,26.115,35.0,65.775,454.58,1110135.0,2025-06-30 05:21:00,大型面包车
2025-06-30,OM25062800001774,重庆中法供水-悦来食堂,06:00:00,18:00:00,106.545289,29.741987,195.075,V054线,2,2025-06-30 06:28:00,2025-06-30 06:51:00,4.405,7.0,,,,,大型面包车
2025-06-30,OM25062900003031,重庆中法供水-悦来食堂,06:00:00,18:00:00,106.545289,29.741987,708.257,V054线,3,2025-06-30 06:23:00,2025-06-30 06:56:00,0.0,0.0,,,,,大型面包车
2025-06-30,OM25062900004430,中建五局—中央公园项目部,06:00:00,18:00:00,106.590964,29.743122,0.0,V054线,4,2025-06-30 07:04:00,2025-06-30 07:24:00,5.658,11.0,,,,,大型面包车
2025-06-30,OM25062900004431,中建五局—中央公园项目部,06:00:00,18:00:00,106.590964,29.743122,47.73,V054线,5,2025-06-30 06:20:00,2025-06-30 06:41:00,0.0,0.0,,,,,大型面包车
2025-06-30,OM25062900005510,中建五局—中央公园项目部,06:00:00,18:00:00,106.590964,29.743122,30.222,V054线,6,2025-06-30 06:41:00,2025-06-30 07:01:00,0.0,0.0,,,,,大型面包车
2025-06-30,OM25062900005511,中建五局—中央公园项目部,06:00:00,18:00:00,106.590964,29.743122,31.26,V054线,7,2025-06-30 07:01:00,2025-06-30 07:22:00,0.0,0.0,,,,,大型面包车
2025-06-30,OM25062900006035,中建五局—中央公园项目部,06:00:00,18:00:00,106.590964,29.743122,17.875,V054线,8,2025-06-30 07:22:00,2025-06-30 07:42:00,0.0,0.0,,,,,大型面包车
2025-06-30,OM25062700006409,中信银行股份有限公司重庆分行（日配）,06:00:00,18:00:00,106.577057,29.578312,361.737,V221线,1,2025-06-30 06:00:00,2025-06-30 06:25:00,29.499,43.0,61.498,660.88,5158115.0,2025-06-30 05:16:00,4.2米
2025-06-30,OM25062700006431,中信银行股份有限公司重庆分行（日配）,06:00:00,18:00:00,106.577057,29.578312,3358.441,V221线,2,2025-06-30 06:25:00,2025-06-30 08:04:00,0.0,0.0,,,,,4.2米
2025-06-30,OM25062700006442,中信银行股份有限公司重庆分行（日配）,06:00:00,18:00:00,106.577057,29.578312,1192.791,V221线,3,2025-06-30 08:04:00,2025-06-30 08:49:00,0.0,0.0,,,,,4.2米
2025-06-30,OM25062700007383,中信银行股份有限公司重庆分行（日配）,06:00:00,18:00:00,106.577057,29.578312,54.956,V221线,4,2025-06-30 08:49:00,2025-06-30 09:10:00,0.0,0.0,,,,,4.2米
2025-06-30,OM25062700007388,中信银行股份有限公司重庆分行（日配）,06:00:00,18:00:00,106.577057,29.578312,126.0,V221线,5,2025-06-30 09:10:00,2025-06-30 09:32:00,0.0,0.0,,,,,4.2米
2025-06-30,OM25062900003262,中信银行股份有限公司重庆分行（日配）,06:00:00,18:00:00,106.577057,29.578312,22.75,V221线,6,2025-06-30 09:32:00,2025-06-30 09:52:00,0.0,0.0,,,,,4.2米
2025-06-30,OM25062900003506,中信银行-北城天街支行（日配）,06:00:00,18:00:00,106.547865,29.589998,41.44,V221线,7,2025-06-30 10:00:00,2025-06-30 10:21:00,5.312,12.0,,,,,4.2米
2025-06-30,OM25062700005716,重庆浩航船务有限公司,06:00:00,18:00:00,106.533997,29.565588,126.411,V055线,1,2025-06-30 06:00:00,2025-06-30 06:22:00,26.173,40.0,59.016,451.54,679347.0,2025-06-30 05:21:00,大型面包车
2025-06-30,OM25062800005862,重庆中国三峡博物馆-大礼堂,06:00:00,18:00:00,106.556882,29.568347,25.0,V055线,2,2025-06-30 06:28:00,2025-06-30 06:49:00,4.186,10.0,,,,,大型面包车
2025-06-30,OM25062900005573,重庆中国三峡博物馆-大礼堂,06:00:00,18:00:00,106.556882,29.568347,527.936,V055线,3,2025-06-30 06:20:00,2025-06-30 06:49:00,0.0,0.0,,,,,大型面包车
2025-06-30,OM25062700004913,重庆凯源石油天然气有限责任公司,06:00:00,18:00:00,106.565222,29.664372,0.0,V056线,1,2025-06-30 06:00:00,2025-06-30 06:20:00,27.661,39.0,57.744,465.96,316588.0,2025-06-30 05:19:00,大型面包车
2025-06-30,OM25062700007768,重庆两江新区爱德蒙幼儿园-学生,06:00:00,18:00:00,106.583517,29.661082,251.84,V056线,2,2025-06-30 06:23:00,2025-06-30 06:47:00,2.179,7.0,,,,,大型面包车
2025-06-30,OM25062800005769,重庆两江新区爱德蒙幼儿园-学生,06:00:00,18:00:00,106.583517,29.661082,6.0,V056线,3,2025-06-30 06:24:00,2025-06-30 06:44:00,0.0,0.0,,,,,大型面包车
2025-06-30,OM25062900004232,重庆两江新区金山名都天宝乐幼儿园1-教师,06:00:00,18:00:00,106.57072,29.656111,15.835,V056线,4,2025-06-30 06:47:00,2025-06-30 07:07:00,2.22,8.0,,,,,大型面包车
2025-06-30,OM25062900005281,重庆两江新区金山名都天宝乐幼儿园1-学生,06:00:00,18:00:00,106.57072,29.656111,42.913,V056线,5,2025-06-30 06:20:00,2025-06-30 06:41:00,0.001,1.0,,,,,大型面包车
2025-06-30,OM25062900005135,四中队,06:00:00,18:00:00,106.530686,29.600396,319.25,V057线,1,2025-06-30 06:00:00,2025-06-30 06:25:00,22.694,32.0,59.234,250.95,930016.0,2025-06-30 05:28:00,大型面包车
2025-06-30,OM25062900003470,重庆市爆破工程建设有限责任公司,06:00:00,18:00:00,106.538333,29.575092,243.63,V057线,2,2025-06-30 06:45:00,2025-06-30 07:08:00,7.201,20.0,,,,,大型面包车
2025-06-30,OM25062900001570,中建五局—观音桥项目,06:00:00,18:00:00,106.535406,29.58118,315.207,V057线,3,2025-06-30 07:18:00,2025-06-30 07:43:00,1.947,10.0,,,,,大型面包车
2025-06-30,OM25062900005326,烤匠大融城-员工餐,06:00:00,18:00:00,106.540047,29.582589,8.064,V057线,4,2025-06-30 07:58:00,2025-06-30 08:18:00,2.485,15.0,,,,,大型面包车
2025-06-30,OM25062900005327,烤匠大融城,06:00:00,18:00:00,106.540047,29.582589,41.84,V057线,5,2025-06-30 08:19:00,2025-06-30 08:40:00,0.001,1.0,,,,,大型面包车
2025-06-30,OM25062900006018,烤匠大融城,06:00:00,18:00:00,106.540047,29.582589,2.025,V057线,6,2025-06-30 08:41:00,2025-06-30 09:01:00,0.001,1.0,,,,,大型面包车
2025-06-30,OM25062700003872,重庆市教育科学研究院,06:00:00,18:00:00,106.549354,29.560878,0.0,V058线,1,2025-06-30 06:00:00,2025-06-30 06:20:00,28.819,47.0,61.624,258.11,1718520.0,2025-06-30 05:13:00,大型面包车
2025-06-30,OM25062900004384,重庆国宾妇产医院有限公司-2楼食堂,06:00:00,18:00:00,106.551376,29.564366,533.343,V058线,2,2025-06-30 06:27:00,2025-06-30 06:55:00,1.094,7.0,,,,,大型面包车
2025-06-30,OM25062900002710,重庆国宾妇产医院有限公司-vip食堂,06:00:00,18:00:00,106.551376,29.564366,340.238,V058线,3,2025-06-30 06:56:00,2025-06-30 07:21:00,0.001,1.0,,,,,大型面包车
2025-06-30,OM25062900005378,重庆当代整形外科医院有限公司,06:00:00,18:00:00,106.526006,29.57101,395.338,V058线,4,2025-06-30 07:32:00,2025-06-30 07:58:00,4.5,11.0,,,,,大型面包车
2025-06-30,OM25062900005384,重庆当代整形外科医院有限公司-客餐,06:00:00,18:00:00,106.526006,29.57101,58.75,V058线,5,2025-06-30 07:59:00,2025-06-30 08:20:00,0.001,1.0,,,,,大型面包车
2025-06-30,OM25062900005670,重庆美莱整形美容医院有限公司,06:00:00,18:00:00,106.526455,29.571259,390.851,V058线,6,2025-06-30 08:22:00,2025-06-30 08:48:00,0.345,2.0,,,,,大型面包车
2025-06-30,OM25062700000975,重庆市人口和计划生育科学技术研究院附属医院,06:00:00,18:00:00,106.537811,29.590335,227.439,V059线,1,2025-06-30 06:00:00,2025-06-30 06:23:00,23.971,36.0,73.285,452.23,616462.0,2025-06-30 05:24:00,大型面包车
2025-06-30,OM25062700007624,中国邮政集团有限公司重庆市江北区分公司,06:00:00,18:00:00,106.548418,29.585873,187.874,V059线,2,2025-06-30 06:28:00,2025-06-30 06:50:00,2.763,9.0,,,,,大型面包车
2025-06-30,OM25062900001068,重庆建工桥梁工程有限责任公司,06:00:00,18:00:00,106.576253,29.52993,177.959,V059线,3,2025-06-30 06:39:00,2025-06-30 07:02:00,10.894,24.0,,,,,大型面包车
2025-06-30,OM25062900004935,烤匠南坪协信星光店,06:00:00,18:00:00,106.57777,29.529062,0.0,V059线,4,2025-06-30 06:23:00,2025-06-30 06:43:00,0.235,1.0,,,,,大型面包车
2025-06-30,OM25062900005332,烤匠南坪协信星光店-员工餐,06:00:00,18:00:00,106.57777,29.529062,11.11,V059线,5,2025-06-30 06:20:00,2025-06-30 06:40:00,0.001,1.0,,,,,大型面包车
2025-06-30,OM25062900005334,烤匠南坪协信星光店,06:00:00,18:00:00,106.57777,29.529062,12.08,V059线,6,2025-06-30 06:40:00,2025-06-30 07:00:00,0.001,1.0,,,,,大型面包车
2025-06-30,OM25062700005370,回兴路食堂,06:00:00,18:00:00,106.6134,29.688502,236.71,V060线,1,2025-06-30 06:00:00,2025-06-30 06:24:00,30.58,50.0,69.152,219.55,503146.0,2025-06-30 05:10:00,大型面包车
2025-06-30,OM25062900003197,渝北区消防救援支队-台商站点,06:00:00,18:00:00,106.616885,29.676158,0.0,V060线,2,2025-06-30 06:33:00,2025-06-30 06:53:00,2.536,9.0,,,,,大型面包车
2025-06-30,OM25062700005388,回兴路食堂,06:00:00,18:00:00,106.6134,29.688502,98.495,V060线,3,2025-06-30 07:02:00,2025-06-30 07:23:00,2.536,9.0,,,,,大型面包车
2025-06-30,OM25062900003788,中建五局—童家院子上盖项目部,06:00:00,18:00:00,106.577054,29.641633,167.941,V060线,4,2025-06-30 07:50:00,2025-06-30 08:13:00,9.144,27.0,,,,,大型面包车
2025-06-30,OM25062700002578,中国烟草总公司重庆市公司巴南分公司,06:00:00,18:00:00,106.543839,29.473039,305.45,V061线,1,2025-06-30 06:00:00,2025-06-30 06:25:00,38.474,59.0,147.291,607.29,1395715.0,2025-06-30 05:02:00,大型面包车
2025-06-30,OM25062700006452,一号楼,06:00:00,18:00:00,106.54485,29.416135,97.068,V061线,2,2025-06-30 06:38:00,2025-06-30 06:59:00,8.797,21.0,,,,,大型面包车
2025-06-30,OM25062700006537,一号楼,06:00:00,18:00:00,106.54485,29.416135,0.0,V061线,3,2025-06-30 06:21:00,2025-06-30 06:41:00,0.0,0.0,,,,,大型面包车
2025-06-30,OM25062700006632,重庆市巴南区土地整治储备中心,06:00:00,18:00:00,106.54746,29.415515,246.856,V061线,4,2025-06-30 06:42:00,2025-06-30 07:06:00,0.31,1.0,,,,,大型面包车
2025-06-30,OM25062900002518,中信银行-巴南支行（日配）,06:00:00,18:00:00,106.533595,29.384211,99.792,V061线,5,2025-06-30 07:19:00,2025-06-30 07:41:00,8.978,21.0,,,,,大型面包车
2025-06-30,OM25062900002980,巴南人保,06:00:00,18:00:00,106.527503,29.38604,127.995,V061线,6,2025-06-30 06:25:00,2025-06-30 06:47:00,2.276,8.0,,,,,大型面包车
2025-06-30,OM25062900003989,重庆市大渡口区人民政府茄子溪街道办事处,06:00:00,18:00:00,106.503245,29.43697,273.975,V061线,7,2025-06-30 07:05:00,2025-06-30 07:29:00,12.126,26.0,,,,,大型面包车
2025-06-30,OM25062900004346,中建五局—大健康项目,06:00:00,18:00:00,106.36498,29.453554,111.979,V061线,8,2025-06-30 08:17:00,2025-06-30 08:39:00,32.084,44.0,,,,,大型面包车
2025-06-30,OM25062900004961,重庆万普隆能源技术有限公司,06:00:00,18:00:00,106.291009,29.573053,132.6,V061线,9,2025-06-30 09:16:00,2025-06-30 09:38:00,24.706,35.0,,,,,大型面包车
2025-06-30,OM25062700005495,重庆市人口和计划生育科学技术研究院附属医院,06:00:00,18:00:00,106.537811,29.590335,0.0,V062线,1,2025-06-30 06:00:00,2025-06-30 06:20:00,23.971,36.0,52.997,200.14,476132.0,2025-06-30 05:24:00,大型面包车
2025-06-30,OM25062900003685,观音桥十八中一楼-二组,06:00:00,18:00:00,106.548222,29.581026,18.9,V062线,2,2025-06-30 06:29:00,2025-06-30 06:49:00,2.598,9.0,,,,,大型面包车
2025-06-30,OM25062900000508,观音桥校区师生食堂,06:00:00,18:00:00,106.548222,29.581026,10.1,V062线,3,2025-06-30 06:50:00,2025-06-30 07:10:00,0.001,1.0,,,,,大型面包车
2025-06-30,OM25062900000226,十八中观音桥面食-一楼三组,06:00:00,18:00:00,106.548222,29.581026,65.2,V062线,4,2025-06-30 07:11:00,2025-06-30 07:32:00,0.001,1.0,,,,,大型面包车
2025-06-30,OM25062900005845,重庆市会展服务中心,06:00:00,18:00:00,106.533919,29.58656,381.932,V062线,5,2025-06-30 07:42:00,2025-06-30 08:08:00,2.277,10.0,,,,,大型面包车
2025-06-30,OM25062900004328,重庆市环境卫生事务中心,06:00:00,18:00:00,106.51557,29.585954,122.092,V063线,1,2025-06-30 06:00:00,2025-06-30 06:22:00,23.776,39.0,47.552,143.55,370163.0,2025-06-30 05:21:00,大型面包车
2025-06-30,OM25062700004812,重庆市环境卫生事务中心,06:00:00,18:00:00,106.51557,29.585954,0.0,V063线,2,2025-06-30 06:22:00,2025-06-30 06:42:00,0.0,0.0,,,,,大型面包车
2025-06-30,OM25062900004410,重庆市环境卫生事务中心,06:00:00,18:00:00,106.51557,29.585954,248.071,V063线,3,2025-06-30 06:42:00,2025-06-30 07:06:00,0.0,0.0,,,,,大型面包车
2025-06-30,OM25062900003110,翰林幼儿园老师,06:00:00,18:00:00,106.550555,29.610524,4.312,V064线,1,2025-06-30 06:00:00,2025-06-30 06:20:00,23.811,40.0,94.74,252.65,176980.0,2025-06-30 05:20:00,大型面包车
2025-06-30,OM25062900002046,两江天宫殿嘉欣幼儿园-学生,06:00:00,18:00:00,106.550159,29.609917,34.762,V064线,2,2025-06-30 06:21:00,2025-06-30 06:42:00,0.003,1.0,,,,,大型面包车
2025-06-30,OM25062900003087,渝北区消防救援支队-龙溪站点,06:00:00,18:00:00,106.530134,29.594603,0.0,V064线,3,2025-06-30 06:57:00,2025-06-30 07:17:00,6.602,15.0,,,,,大型面包车
2025-06-30,OM25062700001639,重庆输油气,06:00:00,18:00:00,106.549654,29.612006,0.0,V064线,4,2025-06-30 07:32:00,2025-06-30 07:52:00,4.975,15.0,,,,,大型面包车
2025-06-30,OM25062900000339,高新区自来水-西所食堂,06:00:00,18:00:00,106.351461,29.5216,137.906,V064线,5,2025-06-30 08:45:00,2025-06-30 09:07:00,40.431,53.0,,,,,大型面包车
2025-06-30,OM25062700006582,佳华-老师,06:00:00,18:00:00,106.539246,29.599319,71.853,V065线,1,2025-06-30 06:00:00,2025-06-30 06:21:00,23.002,32.0,67.335,274.12,607701.0,2025-06-30 05:28:00,大型面包车
2025-06-30,OM25062700007290,安诚财产保险股份有限公司-2楼,06:00:00,18:00:00,106.57571,29.580888,0.0,V065线,2,2025-06-30 06:32:00,2025-06-30 06:52:00,6.071,11.0,,,,,大型面包车
2025-06-30,OM25062800002683,重庆铁路投资集团有限公司,06:00:00,18:00:00,106.575235,29.57739,146.443,V065线,3,2025-06-30 06:55:00,2025-06-30 07:17:00,0.902,3.0,,,,,大型面包车
2025-06-30,OM25062900000949,重庆市渝中区机关事务服务中心（奶BF）,06:00:00,18:00:00,106.575354,29.558923,0.0,V065线,4,2025-06-30 07:31:00,2025-06-30 07:51:00,4.074,14.0,,,,,大型面包车
2025-06-30,OM25062900004519,重庆市渝中区机关事务服务中心,06:00:00,18:00:00,106.575354,29.558923,357.0,V065线,5,2025-06-30 07:52:00,2025-06-30 08:18:00,0.001,1.0,,,,,大型面包车
2025-06-30,OM25062900001946,重庆市渝中区机关事务服务中心（奶）,06:00:00,18:00:00,106.575354,29.558923,0.0,V065线,6,2025-06-30 08:19:00,2025-06-30 08:39:00,0.001,1.0,,,,,大型面包车
2025-06-30,OM25062900005245,重庆颐悦酒店管理有限公司,06:00:00,18:00:00,106.554536,29.619044,32.405,V065线,7,2025-06-30 09:03:00,2025-06-30 09:23:00,8.666,24.0,,,,,大型面包车
2025-06-30,OM25062700002881,重庆建工第二建设有限公司,06:00:00,18:00:00,106.464633,29.556611,705.443,V066线,1,2025-06-30 06:00:00,2025-06-30 06:33:00,26.877,42.0,59.298,509.37,2185483.0,2025-06-30 05:20:00,大型面包车
2025-06-30,OM25062800005374,快乐食间-老重大,06:00:00,18:00:00,106.465902,29.573581,900.0,V066线,2,2025-06-30 06:38:00,2025-06-30 07:16:00,3.64,13.0,,,,,大型面包车
2025-06-30,OM25062900003692,沙照明设施管理-沙坪坝,06:00:00,18:00:00,106.45166,29.578868,115.159,V066线,3,2025-06-30 06:40:00,2025-06-30 07:02:00,1.945,10.0,,,,,大型面包车
2025-06-30,OW25062900000103,重庆万泰建设-万科白鹤岭项目,06:00:00,18:00:00,106.459735,29.575523,199.081,V066线,4,2025-06-30 07:06:00,2025-06-30 07:29:00,2.629,16.0,,,,,大型面包车
2025-06-30,OW25062900000106,丽苑大酒店-员工餐厅,06:00:00,18:00:00,106.466603,29.561936,265.8,V066线,5,2025-06-30 07:34:00,2025-06-30 07:58:00,3.148,12.0,,,,,大型面包车
2025-06-30,OM25062700006694,西南医院幼儿园,06:00:00,18:00:00,106.453589,29.540679,403.12,V067线,1,2025-06-30 06:00:00,2025-06-30 06:26:00,28.093,46.0,60.515,493.58,2150874.0,2025-06-30 05:18:00,大型面包车
2025-06-30,OM25062700007703,西南医院幼儿园,06:00:00,18:00:00,106.453589,29.540679,134.5,V067线,2,2025-06-30 06:26:00,2025-06-30 06:48:00,0.0,0.0,,,,,大型面包车
2025-06-30,OM25062900001268,招待所食堂,06:00:00,18:00:00,106.454114,29.542762,184.28,V067线,3,2025-06-30 06:49:00,2025-06-30 07:11:00,0.324,1.0,,,,,大型面包车
2025-06-30,OM25062900002399,重庆市沙坪坝区养老服务中心（重庆市沙坪坝区福利院）,06:00:00,18:00:00,106.45324,29.538004,110.985,V067线,4,2025-06-30 07:13:00,2025-06-30 07:35:00,1.241,4.0,,,,,大型面包车
2025-06-30,OM25062900002744,西南医院杏林楼九楼,06:00:00,18:00:00,106.454078,29.53965,148.4,V067线,5,2025-06-30 06:23:00,2025-06-30 06:45:00,0.618,3.0,,,,,大型面包车
2025-06-30,OM25062900002750,西南医院杏林楼二楼,06:00:00,18:00:00,106.454078,29.53965,228.0,V067线,6,2025-06-30 06:22:00,2025-06-30 06:46:00,0.001,1.0,,,,,大型面包车
2025-06-30,OM25062900002756,西南医院杏林楼一楼,06:00:00,18:00:00,106.454078,29.53965,105.0,V067线,7,2025-06-30 06:46:00,2025-06-30 07:07:00,0.001,1.0,,,,,大型面包车
2025-06-30,OM25062900003572,家属区食堂,06:00:00,18:00:00,106.454885,29.546363,675.005,V067线,8,2025-06-30 07:09:00,2025-06-30 07:41:00,1.19,4.0,,,,,大型面包车
2025-06-30,OM25062900003736,重庆市沙坪坝区图书馆,06:00:00,18:00:00,106.46117,29.569651,103.276,V067线,9,2025-06-30 07:48:00,2025-06-30 08:09:00,4.425,15.0,,,,,大型面包车
2025-06-30,OM25062900004277,烤匠金沙天街,06:00:00,18:00:00,106.465319,29.560707,32.98,V067线,10,2025-06-30 08:13:00,2025-06-30 08:34:00,2.82,9.0,,,,,大型面包车
2025-06-30,OM25062900005846,烤匠金沙天街-员工餐,06:00:00,18:00:00,106.465319,29.560707,10.578,V067线,11,2025-06-30 06:21:00,2025-06-30 06:41:00,0.11,1.0,,,,,大型面包车
2025-06-30,OM25062900005848,烤匠金沙天街,06:00:00,18:00:00,106.465319,29.560707,0.0,V067线,12,2025-06-30 06:41:00,2025-06-30 07:01:00,0.11,1.0,,,,,大型面包车
2025-06-30,OM25062900006017,烤匠金沙天街,06:00:00,18:00:00,106.465319,29.560707,0.0,V067线,13,2025-06-30 07:01:00,2025-06-30 07:21:00,0.11,1.0,,,,,大型面包车
2025-06-30,OW25062900000090,丽苑大酒店-西餐厅,06:00:00,18:00:00,106.466603,29.561936,14.75,V067线,14,2025-06-30 07:22:00,2025-06-30 07:42:00,0.413,3.0,,,,,大型面包车
2025-06-30,OM25062700006788,重庆市渝北区人民政府人和街道办事处,06:00:00,18:00:00,106.543666,29.633111,0.0,V068线,1,2025-06-30 06:00:00,2025-06-30 06:20:00,22.604,36.0,45.208,452.4,939701.0,2025-06-30 05:26:00,大型面包车
2025-06-30,OM25062900005071,重庆市渝北区人民政府人和街道办事处,06:00:00,18:00:00,106.543666,29.633111,939.701,V068线,2,2025-06-30 06:20:00,2025-06-30 06:58:00,0.0,0.0,,,,,大型面包车
2025-06-30,OM25062700007627,佳华-学生,06:00:00,18:00:00,106.539246,29.599319,281.324,V069线,1,2025-06-30 06:00:00,2025-06-30 06:24:00,23.002,32.0,57.391,269.65,1575358.0,2025-06-30 05:28:00,大型面包车
2025-06-30,OM25062900002164,重庆市港航海事事务中心,06:00:00,18:00:00,106.532812,29.590116,466.044,V069线,2,2025-06-30 06:27:00,2025-06-30 06:54:00,1.773,3.0,,,,,大型面包车
2025-06-30,OM25062900002307,重庆市江北区人力资源和社会保障局,06:00:00,18:00:00,106.54306,29.579964,801.465,V069线,3,2025-06-30 07:02:00,2025-06-30 07:37:00,2.286,8.0,,,,,大型面包车
2025-06-30,OM25062900004279,烤匠龙湖北城天街,06:00:00,18:00:00,106.539845,29.583886,10.68,V069线,4,2025-06-30 07:44:00,2025-06-30 08:04:00,1.348,7.0,,,,,大型面包车
2025-06-30,OM25062900002172,重庆市港航海事事务中心,06:00:00,18:00:00,106.532812,29.590116,14.85,V069线,5,2025-06-30 08:12:00,2025-06-30 08:33:00,2.184,8.0,,,,,大型面包车
2025-06-30,OM25062900004937,烤匠龙湖北城天街,06:00:00,18:00:00,106.539845,29.583886,0.0,V069线,6,2025-06-30 08:41:00,2025-06-30 09:01:00,2.184,8.0,,,,,大型面包车
2025-06-30,OM25062900005310,烤匠龙湖北城天街-员工餐,06:00:00,18:00:00,106.539845,29.583886,0.995,V069线,7,2025-06-30 09:02:00,2025-06-30 09:22:00,0.001,1.0,,,,,大型面包车
2025-06-30,OM25062800002202,幼儿园食堂,06:00:00,18:00:00,106.454977,29.548087,13.5,V070线,1,2025-06-30 06:00:00,2025-06-30 06:20:00,26.912,41.0,52.696,463.21,368254.0,2025-06-30 05:20:00,大型面包车
2025-06-30,OM25062900000472,重庆市沙坪坝区档案馆,06:00:00,18:00:00,106.453437,29.546603,66.185,V070线,2,2025-06-30 06:21:00,2025-06-30 06:42:00,0.522,3.0,,,,,大型面包车
2025-06-30,OM25062900005405,重庆市沙坪坝区医疗保障局,06:00:00,18:00:00,106.453372,29.546518,232.319,V070线,3,2025-06-30 06:21:00,2025-06-30 06:44:00,0.006,1.0,,,,,大型面包车
2025-06-30,OW25062900000091,丽苑大酒店-西餐厅,06:00:00,18:00:00,106.466603,29.561936,56.25,V070线,4,2025-06-30 06:51:00,2025-06-30 07:12:00,4.197,17.0,,,,,大型面包车
2025-06-30,OM25062700003840,沙坪坝区公园管理中心,06:00:00,18:00:00,106.478925,29.554136,265.279,V071线,1,2025-06-30 06:00:00,2025-06-30 06:24:00,27.539,42.0,60.936,528.93,2634554.0,2025-06-30 05:19:00,大型面包车
2025-06-30,OM25062700003851,沙坪坝区公园管理中心-沙坪公园,06:00:00,18:00:00,106.478925,29.554136,39.459,V071线,2,2025-06-30 06:24:00,2025-06-30 06:45:00,0.001,1.0,,,,,大型面包车
2025-06-30,OM25062800002520,沙环卫-环卫处食堂,06:00:00,18:00:00,106.479904,29.554766,259.645,V071线,3,2025-06-30 06:47:00,2025-06-30 07:11:00,1.375,4.0,,,,,大型面包车
2025-06-30,OM25062900002528,陆军军医大学三食堂-大灶,06:00:00,18:00:00,106.458697,29.540749,306.68,V071线,4,2025-06-30 07:18:00,2025-06-30 07:42:00,4.815,14.0,,,,,大型面包车
2025-06-30,OM25062900004367,重庆市凤鸣山中学-3楼,06:00:00,18:00:00,106.455654,29.535218,11.5,V071线,5,2025-06-30 06:26:00,2025-06-30 06:47:00,1.196,6.0,,,,,大型面包车
2025-06-30,OM25062900004417,重庆市凤鸣山中学-1楼,06:00:00,18:00:00,106.455654,29.535218,767.528,V071线,6,2025-06-30 06:20:00,2025-06-30 06:54:00,0.001,1.0,,,,,大型面包车
2025-06-30,OM25062900005397,重庆市凤鸣山中学-1楼,06:00:00,18:00:00,106.455654,29.535218,50.2,V071线,7,2025-06-30 06:54:00,2025-06-30 07:15:00,0.001,1.0,,,,,大型面包车
2025-06-30,OM25062900005443,重庆市凤鸣山中学-3楼,06:00:00,18:00:00,106.455654,29.535218,578.993,V071线,8,2025-06-30 07:15:00,2025-06-30 07:45:00,0.001,1.0,,,,,大型面包车
2025-06-30,OW25062900000095,丽苑大酒店-西餐厅,06:00:00,18:00:00,106.466603,29.561936,355.27,V071线,9,2025-06-30 07:52:00,2025-06-30 08:17:00,4.948,17.0,,,,,大型面包车
2025-06-30,OM25062700006656,重庆水务环境控股集团有限公司,06:00:00,18:00:00,106.505464,29.554275,76.36,V072线,1,2025-06-30 06:00:00,2025-06-30 06:21:00,28.458,45.0,55.904,463.81,822454.0,2025-06-30 05:17:00,大型面包车
2025-06-30,OM25062700006657,重庆水务环境控股集团有限公司,06:00:00,18:00:00,106.505464,29.554275,80.65,V072线,2,2025-06-30 06:21:00,2025-06-30 06:42:00,0.0,0.0,,,,,大型面包车
2025-06-30,OM25062700007700,重庆水务环境控股集团有限公司,06:00:00,18:00:00,106.505464,29.554275,384.104,V072线,3,2025-06-30 06:42:00,2025-06-30 07:08:00,0.0,0.0,,,,,大型面包车
2025-06-30,OW25062700000065,重庆市锦尚小金星幼儿园-老师,06:00:00,18:00:00,106.501745,29.549904,50.57,V072线,4,2025-06-30 07:10:00,2025-06-30 07:30:00,1.054,7.0,,,,,大型面包车
2025-06-30,OW25062700001071,重庆市锦尚小金星幼儿园-学生,06:00:00,18:00:00,106.501745,29.549904,121.87,V072线,5,2025-06-30 06:21:00,2025-06-30 06:43:00,0.001,1.0,,,,,大型面包车
2025-06-30,OW25062900001088,丽苑大酒店-外卖,06:00:00,18:00:00,106.466603,29.561936,108.9,V072线,6,2025-06-30 06:51:00,2025-06-30 07:12:00,5.332,16.0,,,,,大型面包车
2025-06-30,OM25062900001936,金融街重庆裕隆实业有限公司,06:00:00,18:00:00,106.454312,29.585594,122.903,V073线,1,2025-06-30 06:00:00,2025-06-30 06:22:00,25.874,40.0,55.429,469.37,335532.0,2025-06-30 05:21:00,大型面包车
2025-06-30,OM25062900003780,沙磁幼儿园-老师,06:00:00,18:00:00,106.462866,29.58494,80.44,V073线,2,2025-06-30 06:24:00,2025-06-30 06:45:00,1.37,7.0,,,,,大型面包车
2025-06-30,OM25062900005166,沙坪坝区气象局,06:00:00,18:00:00,106.470382,29.579333,132.189,V073线,3,2025-06-30 06:52:00,2025-06-30 07:14:00,4.659,10.0,,,,,大型面包车
2025-06-30,OM25062700005109,中国石油集团川庆钻探工程有限公司重庆运输总公司,06:00:00,18:00:00,106.514249,29.582631,0.0,V074线,1,2025-06-30 06:00:00,2025-06-30 06:20:00,23.945,38.0,75.035,300.43,1525058.0,2025-06-30 05:22:00,大型面包车
2025-06-30,OM25062800001772,重庆中法供水-松树桥食堂,06:00:00,18:00:00,106.50817,29.588904,93.375,V074线,2,2025-06-30 06:28:00,2025-06-30 06:49:00,2.06,8.0,,,,,大型面包车
2025-06-30,OM25062900000991,重庆中法供水-松树桥食堂,06:00:00,18:00:00,106.50817,29.588904,472.842,V074线,3,2025-06-30 06:49:00,2025-06-30 07:16:00,0.0,0.0,,,,,大型面包车
2025-06-30,OM25062900005003,九龙坡区交通运输委员会,06:00:00,18:00:00,106.532276,29.51463,47.26,V074线,4,2025-06-30 07:40:00,2025-06-30 08:01:00,12.764,24.0,,,,,大型面包车
2025-06-30,OM25062900000995,重庆市九龙坡区鹅公岩小学校-早餐,06:00:00,18:00:00,106.529894,29.529111,855.8,V074线,5,2025-06-30 08:03:00,2025-06-30 08:40:00,1.79,2.0,,,,,大型面包车
2025-06-30,OM25062900005337,重庆两江新区金山名都天宝乐幼儿园2-学生,06:00:00,18:00:00,106.517129,29.529399,40.466,V074线,6,2025-06-30 08:49:00,2025-06-30 09:09:00,3.739,9.0,,,,,大型面包车
2025-06-30,OM25062900005341,重庆两江新区金山名都天宝乐幼儿园2-教师,06:00:00,18:00:00,106.517129,29.529399,15.315,V074线,7,2025-06-30 09:10:00,2025-06-30 09:30:00,0.001,1.0,,,,,大型面包车
2025-06-30,OM25062700001153,戴维斯物业管理-国家开发银行重庆分行,06:00:00,18:00:00,106.575366,29.577498,212.853,V075线,1,2025-06-30 06:00:00,2025-06-30 06:23:00,28.453,41.0,59.699,238.04,669284.0,2025-06-30 05:19:00,大型面包车
2025-06-30,OM25062700006279,厦门银行股份有限公司重庆分行,06:00:00,18:00:00,106.575313,29.577264,0.0,V075线,2,2025-06-30 06:25:00,2025-06-30 06:45:00,0.298,2.0,,,,,大型面包车
2025-06-30,OM25062900003086,厦门银行股份有限公司重庆分行,06:00:00,18:00:00,106.575313,29.577264,24.06,V075线,3,2025-06-30 06:46:00,2025-06-30 07:07:00,0.001,1.0,,,,,大型面包车
2025-06-30,OM25062900002098,厦门银行股份有限公司重庆分行,06:00:00,18:00:00,106.575313,29.577264,421.581,V075线,4,2025-06-30 07:08:00,2025-06-30 07:34:00,0.001,1.0,,,,,大型面包车
2025-06-30,OM25062900004726,厦门银行重庆分行-办公室,06:00:00,18:00:00,106.575313,29.577264,10.79,V075线,5,2025-06-30 07:35:00,2025-06-30 07:55:00,0.001,1.0,,,,,大型面包车
2025-06-30,OM25062800003188,重庆市爆破工程建设有限责任公司,06:00:00,18:00:00,106.538333,29.575092,0.0,V075线,6,2025-06-30 08:14:00,2025-06-30 08:34:00,4.889,19.0,,,,,大型面包车
2025-06-30,OM25062800000554,重庆市渝北区北城书画艺术学校,06:00:00,18:00:00,106.51144,29.595375,90.42,V076线,1,2025-06-30 06:00:00,2025-06-30 06:21:00,22.723,35.0,59.495,495.91,972637.0,2025-06-30 05:26:00,大型面包车
2025-06-30,OM25062800001545,重庆市渝北区北城书画艺术学校,06:00:00,18:00:00,106.51144,29.595375,12.5,V076线,2,2025-06-30 06:21:00,2025-06-30 06:42:00,0.0,0.0,,,,,大型面包车
2025-06-30,OM25062900001261,重庆市公安局特勤局,06:00:00,18:00:00,106.519062,29.606843,161.226,V076线,3,2025-06-30 06:45:00,2025-06-30 07:08:00,2.425,8.0,,,,,大型面包车
2025-06-30,OM25062900001309,重庆市公安局特勤局,06:00:00,18:00:00,106.519062,29.606843,308.763,V076线,4,2025-06-30 06:22:00,2025-06-30 06:47:00,0.0,0.0,,,,,大型面包车
2025-06-30,OM25062900001323,重庆市公安局特勤局,06:00:00,18:00:00,106.519062,29.606843,71.39,V076线,5,2025-06-30 06:47:00,2025-06-30 07:08:00,0.0,0.0,,,,,大型面包车
2025-06-30,OM25062900002572,两江小博士幼儿园-学生,06:00:00,18:00:00,106.561772,29.607034,114.671,V076线,6,2025-06-30 07:16:00,2025-06-30 07:38:00,5.584,16.0,,,,,大型面包车
2025-06-30,OM25062900002577,两江小博士幼儿园-老师,06:00:00,18:00:00,106.561772,29.607034,23.825,V076线,7,2025-06-30 06:22:00,2025-06-30 06:42:00,0.001,1.0,,,,,大型面包车
2025-06-30,OM25062900003213,中信银行股份有限公司重庆鲁能星城支行（日配）,06:00:00,18:00:00,106.561726,29.599541,71.962,V076线,8,2025-06-30 06:44:00,2025-06-30 07:06:00,1.565,8.0,,,,,大型面包车
2025-06-30,OM25062900003508,中信银行-江北支行（日配）,06:00:00,18:00:00,106.543916,29.595574,117.88,V076线,9,2025-06-30 07:09:00,2025-06-30 07:31:00,2.617,8.0,,,,,大型面包车
2025-06-30,OM25062900003513,重庆市地震局（ZX）,06:00:00,18:00:00,106.544414,29.595358,0.0,V076线,10,2025-06-30 06:22:00,2025-06-30 06:42:00,0.071,1.0,,,,,大型面包车
2025-06-30,OM25062700006451,重庆市九龙坡区金凤镇人民政府,06:00:00,18:00:00,106.324981,29.525253,70.45,V077线,1,2025-06-30 06:00:00,2025-06-30 06:21:00,21.993,31.0,47.234,466.9,697660.0,2025-06-30 05:27:00,大型面包车
2025-06-30,OM25062800005892,重庆市九龙坡区金凤镇人民政府,06:00:00,18:00:00,106.324981,29.525253,513.855,V077线,2,2025-06-30 06:21:00,2025-06-30 06:49:00,0.0,0.0,,,,,大型面包车
2025-06-30,OM25062900004584,中建五局—重庆凤栖湖项目,06:00:00,18:00:00,106.325398,29.53605,9.05,V077线,3,2025-06-30 06:53:00,2025-06-30 07:13:00,2.618,7.0,,,,,大型面包车
2025-06-30,OM25062900004585,中建五局—重庆凤栖湖项目,06:00:00,18:00:00,106.325398,29.53605,0.0,V077线,4,2025-06-30 06:20:00,2025-06-30 06:40:00,0.0,0.0,,,,,大型面包车
2025-06-30,OM25062900005673,中建五局—重庆凤栖湖项目,06:00:00,18:00:00,106.325398,29.53605,104.305,V077线,5,2025-06-30 06:40:00,2025-06-30 07:02:00,0.0,0.0,,,,,大型面包车
2025-06-30,OM25062700005018,重庆清电新能源开发有限公司,06:00:00,18:00:00,106.509122,29.615086,419.05,V078线,1,2025-06-30 06:00:00,2025-06-30 06:26:00,22.152,27.0,44.305,106.35,756404.0,2025-06-30 05:33:00,大型面包车
2025-06-30,OM25062900005745,中国十九冶集团有限公司重庆分公司,06:00:00,18:00:00,106.508318,29.615037,337.354,V078线,2,2025-06-30 06:27:00,2025-06-30 06:52:00,0.121,1.0,,,,,大型面包车
2025-06-30,OM25062800000105,重庆市沙坪坝区春田幼儿园,06:00:00,18:00:00,106.48455,29.561045,302.105,V079线,1,2025-06-30 06:00:00,2025-06-30 06:25:00,23.348,39.0,68.016,268.49,1216907.0,2025-06-30 05:21:00,大型面包车
2025-06-30,OM25062900001003,金沙幼儿园-学生,06:00:00,18:00:00,106.486467,29.56205,66.0,V079线,2,2025-06-30 06:35:00,2025-06-30 06:56:00,2.922,10.0,,,,,大型面包车
2025-06-30,OM25062900005015,中信银行-高新支行（日配）,06:00:00,18:00:00,106.493782,29.53759,69.315,V079线,3,2025-06-30 07:04:00,2025-06-30 07:25:00,5.195,8.0,,,,,大型面包车
2025-06-30,OM25062800000103,春田幼儿园-老师,06:00:00,18:00:00,106.48455,29.561045,55.382,V079线,4,2025-06-30 07:40:00,2025-06-30 08:00:00,6.329,15.0,,,,,大型面包车
2025-06-30,OM25062900005110,中国石油集团川庆钻探工程有限公司重庆运输总公司,06:00:00,18:00:00,106.514249,29.582631,724.105,V079线,5,2025-06-30 08:14:00,2025-06-30 08:47:00,6.432,14.0,,,,,大型面包车
2025-06-30,OM25062900006049,重庆市生态环境监测中心-用品,06:00:00,18:00:00,106.498872,29.597912,0.0,V079线,6,2025-06-30 08:56:00,2025-06-30 09:16:00,3.131,9.0,,,,,大型面包车
2025-06-30,OM25062400003394,华能-9楼,06:00:00,18:00:00,106.515487,29.624322,0.0,V080线,1,2025-06-30 06:00:00,2025-06-30 06:20:00,21.812,30.0,48.824,463.54,614485.0,2025-06-30 05:27:00,大型面包车
2025-06-30,OM25062800000688,华能-9楼,06:00:00,18:00:00,106.515487,29.624322,0.0,V080线,2,2025-06-30 06:20:00,2025-06-30 06:40:00,0.0,0.0,,,,,大型面包车
2025-06-30,OM25062900002067,两江人和嘉欣幼儿园-学生,06:00:00,18:00:00,106.534572,29.627245,39.437,V080线,3,2025-06-30 06:44:00,2025-06-30 07:05:00,2.747,7.0,,,,,大型面包车
2025-06-30,OM25062900002071,两江人和嘉欣幼儿园-老师,06:00:00,18:00:00,106.534572,29.627245,5.6,V080线,4,2025-06-30 06:21:00,2025-06-30 06:41:00,0.001,1.0,,,,,大型面包车
2025-06-30,OM25062900004499,两江新区第一人民医院,06:00:00,18:00:00,106.538168,29.628559,385.06,V080线,5,2025-06-30 06:42:00,2025-06-30 07:08:00,0.933,4.0,,,,,大型面包车
2025-06-30,OM25062900006229,两江新区人民医院-小卖部,06:00:00,18:00:00,106.537816,29.62831,0.0,V080线,6,2025-06-30 06:26:00,2025-06-30 06:46:00,0.201,1.0,,,,,大型面包车
2025-06-30,OW25062900001095,重庆东彭物业管理有限公司,06:00:00,18:00:00,106.519562,29.616892,184.388,V080线,7,2025-06-30 06:51:00,2025-06-30 07:13:00,3.072,9.0,,,,,大型面包车
2025-06-30,OM25062700007065,中电建重庆勘测设计研究院有限公司,06:00:00,18:00:00,106.516845,29.616736,428.717,V081线,1,2025-06-30 06:00:00,2025-06-30 06:26:00,21.168,27.0,47.546,163.17,744622.0,2025-06-30 05:33:00,大型面包车
2025-06-30,OM25062900003960,中国船级社重庆分社,06:00:00,18:00:00,106.508776,29.624766,66.35,V081线,2,2025-06-30 06:38:00,2025-06-30 06:59:00,3.139,12.0,,,,,大型面包车
2025-06-30,OM25062900005036,中国船级社重庆分社,06:00:00,18:00:00,106.508776,29.624766,29.34,V081线,3,2025-06-30 06:59:00,2025-06-30 07:20:00,0.0,0.0,,,,,大型面包车
2025-06-30,OM25062900003961,中国船级社重庆分社,06:00:00,18:00:00,106.508776,29.624766,220.215,V081线,4,2025-06-30 07:20:00,2025-06-30 07:43:00,0.0,0.0,,,,,大型面包车
2025-06-30,OM25062800004215,重庆两江新区丹鹤幼儿园,06:00:00,18:00:00,106.559716,29.670023,146.775,V082线,1,2025-06-30 06:00:00,2025-06-30 06:22:00,24.454,38.0,67.198,485.28,445422.0,2025-06-30 05:23:00,大型面包车
2025-06-30,OM25062800005235,重庆两江新区启星幼儿园,06:00:00,18:00:00,106.559528,29.670285,51.857,V082线,2,2025-06-30 06:22:00,2025-06-30 06:43:00,0.016,1.0,,,,,大型面包车
2025-06-30,OM25062900001861,渝北区消防救援支队-空港新城站点,06:00:00,18:00:00,106.605248,29.715429,27.0,V082线,3,2025-06-30 07:02:00,2025-06-30 07:22:00,12.412,24.0,,,,,大型面包车
2025-06-30,OW25062900000026,渝北区交巡警-双龙大队,06:00:00,18:00:00,106.60536,29.713829,219.79,V082线,4,2025-06-30 06:22:00,2025-06-30 06:46:00,1.311,3.0,,,,,大型面包车
2025-06-30,OM25062800001967,重庆瑜煌电力设备制造有限公司-干副,06:00:00,18:00:00,106.481465,29.771363,27.0,V083线,1,2025-06-30 06:00:00,2025-06-30 06:20:00,21.965,36.0,43.933,255.89,3751284.0,2025-06-30 05:24:00,大型面包车
2025-06-30,OM25062700005966,重庆瑜煌电力设备制造有限公司-干副,06:00:00,18:00:00,106.481465,29.771363,0.0,V083线,2,2025-06-30 06:21:00,2025-06-30 06:41:00,0.001,1.0,,,,,大型面包车
2025-06-30,OM25062700005980,重庆瑜煌电力设备制造有限公司-蔬菜,06:00:00,18:00:00,106.481465,29.771363,2219.668,V083线,3,2025-06-30 06:42:00,2025-06-30 07:53:00,0.001,1.0,,,,,大型面包车
2025-06-30,OM25062900003474,重庆瑜煌电力设备制造有限公司-蔬菜,06:00:00,18:00:00,106.481465,29.771363,1242.1,V083线,4,2025-06-30 07:54:00,2025-06-30 08:40:00,0.001,1.0,,,,,大型面包车
2025-06-30,OM25062900004022,地质勘察——午餐,06:00:00,18:00:00,106.47412,29.76077,262.516,V083线,5,2025-06-30 08:44:00,2025-06-30 09:08:00,1.555,4.0,,,,,大型面包车
2025-06-30,OM25062700004045,考试中心（考试考核基地水果）,06:00:00,18:00:00,106.508461,29.602091,36.65,V084线,1,2025-06-30 06:00:00,2025-06-30 06:21:00,22.714,29.0,54.175,260.05,336411.0,2025-06-30 05:31:00,大型面包车
2025-06-30,OM25062900004928,烤匠龙湖源著,06:00:00,18:00:00,106.49598,29.60528,0.0,V084线,2,2025-06-30 06:31:00,2025-06-30 06:51:00,2.906,10.0,,,,,大型面包车
2025-06-30,OM25062900004281,烤匠龙湖源著,06:00:00,18:00:00,106.49598,29.60528,13.465,V084线,3,2025-06-30 06:52:00,2025-06-30 07:12:00,0.001,1.0,,,,,大型面包车
2025-06-30,OM25062900003771,重庆凯源石油天然气有限责任公司北部分公司,06:00:00,18:00:00,106.523304,29.599892,40.207,V084线,4,2025-06-30 07:22:00,2025-06-30 07:42:00,3.414,10.0,,,,,大型面包车
2025-06-30,OM25062700005129,考试中心（考试考核基地干副）,06:00:00,18:00:00,106.508461,29.602091,21.7,V084线,5,2025-06-30 07:45:00,2025-06-30 08:06:00,1.54,3.0,,,,,大型面包车
2025-06-30,OM25062700005097,考试中心（考试考核基地肉）,06:00:00,18:00:00,106.508461,29.602091,37.766,V084线,6,2025-06-30 08:07:00,2025-06-30 08:27:00,0.001,1.0,,,,,大型面包车
2025-06-30,OM25062700005094,考试中心（考试考核基地菜）,06:00:00,18:00:00,106.508461,29.602091,178.253,V084线,7,2025-06-30 08:28:00,2025-06-30 08:51:00,0.001,1.0,,,,,大型面包车
2025-06-30,OM25062900005346,烤匠龙湖源著-员工餐,06:00:00,18:00:00,106.49598,29.60528,8.37,V084线,8,2025-06-30 09:01:00,2025-06-30 09:21:00,2.906,10.0,,,,,大型面包车
2025-06-30,OM25062800000711,华能国际电力股份有限公司重庆分公司,06:00:00,18:00:00,106.517691,29.624592,298.286,V085线,1,2025-06-30 06:00:00,2025-06-30 06:24:00,20.099,29.0,41.073,160.88,1557801.0,2025-06-30 05:31:00,大型面包车
2025-06-30,OM25062900003859,上海浦东发展银行股份有限公司重庆分行,06:00:00,18:00:00,106.517299,29.622034,1250.915,V085线,2,2025-06-30 06:31:00,2025-06-30 07:18:00,0.438,7.0,,,,,大型面包车
2025-06-30,OM25062900002906,上海浦东发展银行股份有限公司重庆分行,06:00:00,18:00:00,106.517299,29.622034,8.6,V085线,3,2025-06-30 07:18:00,2025-06-30 07:38:00,0.0,0.0,,,,,大型面包车
2025-06-30,OM25062700007680,长江重庆航道局,06:00:00,18:00:00,106.533262,29.609008,389.63,V086线,1,2025-06-30 06:00:00,2025-06-30 06:26:00,21.765,30.0,58.561,249.13,1522640.0,2025-06-30 05:30:00,大型面包车
2025-06-30,OM25062900000261,重庆建工第十二建设有限责任公司,06:00:00,18:00:00,106.520058,29.605993,72.721,V086线,2,2025-06-30 06:30:00,2025-06-30 06:51:00,2.217,4.0,,,,,大型面包车
2025-06-30,OM25062900003269,中交第三公路工程局有限公司第四分公司,06:00:00,18:00:00,106.497226,29.619976,223.56,V086线,3,2025-06-30 07:06:00,2025-06-30 07:29:00,6.669,15.0,,,,,大型面包车
2025-06-30,OM25062900002868,大连银行股份有限公司重庆分行,06:00:00,18:00:00,106.520366,29.597302,0.0,V086线,4,2025-06-30 07:42:00,2025-06-30 08:02:00,4.558,13.0,,,,,大型面包车
2025-06-30,OM25062900005812,大连银行股份有限公司重庆分行,06:00:00,18:00:00,106.520366,29.597302,628.647,V086线,5,2025-06-30 08:02:00,2025-06-30 08:33:00,0.0,0.0,,,,,大型面包车
2025-06-30,OW25062900001097,渝北区交巡警-龙山大队,06:00:00,18:00:00,106.497532,29.595188,208.082,V086线,6,2025-06-30 08:46:00,2025-06-30 09:09:00,3.453,13.0,,,,,大型面包车
2025-06-30,OM25062700007750,重庆市江北区人民政府石马河街道办事处,06:00:00,18:00:00,106.48994,29.601242,666.653,V087线,1,2025-06-30 06:00:00,2025-06-30 06:32:00,19.962,31.0,63.695,358.75,3513092.0,2025-06-30 05:29:00,大型面包车
2025-06-30,OM25062800000098,中机中联-中机建筑大厦,06:00:00,18:00:00,106.498158,29.548044,1438.777,V087线,2,2025-06-30 06:52:00,2025-06-30 07:43:00,8.632,20.0,,,,,大型面包车
2025-06-30,OM25062800001089,中机中联-中机建筑大厦,06:00:00,18:00:00,106.498158,29.548044,490.657,V087线,3,2025-06-30 07:43:00,2025-06-30 08:10:00,0.0,0.0,,,,,大型面包车
2025-06-30,OM25062900002360,252572-科园五路,06:00:00,18:00:00,106.501673,29.535626,63.105,V087线,4,2025-06-30 08:22:00,2025-06-30 08:43:00,2.979,12.0,,,,,大型面包车
2025-06-30,OM25062900002673,陆军勤务学院训练基地第一食堂,06:00:00,18:00:00,106.504022,29.541437,483.3,V087线,5,2025-06-30 08:54:00,2025-06-30 09:21:00,1.948,11.0,,,,,大型面包车
2025-06-30,OM25062900002665,陆军勤务学院训练基地第二食堂,06:00:00,18:00:00,106.502518,29.541099,191.45,V087线,6,2025-06-30 09:28:00,2025-06-30 09:51:00,0.943,7.0,,,,,大型面包车
2025-06-30,OM25062900003650,陆军勤务学院训练基地勤务连,06:00:00,18:00:00,106.504022,29.541437,22.9,V087线,7,2025-06-30 09:58:00,2025-06-30 10:18:00,0.943,7.0,,,,,大型面包车
2025-06-30,OM25062900004472,烹饪教研室,06:00:00,18:00:00,106.504022,29.541437,156.25,V087线,8,2025-06-30 10:22:00,2025-06-30 10:45:00,0.764,4.0,,,,,大型面包车
2025-06-30,OM25062900002041,中信银行--观音桥支行（日配）,06:00:00,18:00:00,106.526012,29.571562,82.606,V088线,1,2025-06-30 06:00:00,2025-06-30 06:21:00,26.255,40.0,58.088,209.62,641243.0,2025-06-30 05:20:00,大型面包车
2025-06-30,OM25062900002956,中信银行--观音桥支行（日配）,06:00:00,18:00:00,106.526012,29.571562,0.0,V088线,2,2025-06-30 06:21:00,2025-06-30 06:41:00,0.0,0.0,,,,,大型面包车
2025-06-30,OM25062800004469,重庆浩航船务有限公司,06:00:00,18:00:00,106.533997,29.565588,0.0,V088线,3,2025-06-30 06:45:00,2025-06-30 07:05:00,1.842,4.0,,,,,大型面包车
2025-06-30,OM25062900004032,中建八局第二建设有限公司,06:00:00,18:00:00,106.488117,29.59991,82.047,V088线,4,2025-06-30 07:21:00,2025-06-30 07:42:00,7.74,16.0,,,,,大型面包车
2025-06-30,OM25062900003678,重庆市生态环境监测中心,06:00:00,18:00:00,106.498872,29.597912,476.59,V088线,5,2025-06-30 07:49:00,2025-06-30 08:17:00,1.592,7.0,,,,,大型面包车
2025-06-30,OM25062700007262,国家税务总局重庆两江新区税务局,06:00:00,18:00:00,106.564296,29.654847,445.427,V089线,1,2025-06-30 06:00:00,2025-06-30 06:27:00,25.39,40.0,57.542,192.49,699410.0,2025-06-30 05:20:00,大型面包车
2025-06-30,OM25062700005725,中信银行-金州支行（日配）,06:00:00,18:00:00,106.551843,29.650122,65.092,V089线,2,2025-06-30 06:36:00,2025-06-30 06:57:00,3.296,9.0,,,,,大型面包车
2025-06-30,OM25062900003042,中信银行-两江支行（日配）,06:00:00,18:00:00,106.572532,29.652119,103.535,V089线,3,2025-06-30 07:08:00,2025-06-30 07:29:00,3.657,11.0,,,,,大型面包车
2025-06-30,OM25062900005012,中信银行-金渝支行（日配）,06:00:00,18:00:00,106.532388,29.658287,85.356,V089线,4,2025-06-30 07:42:00,2025-06-30 08:03:00,5.691,13.0,,,,,大型面包车
2025-06-30,OM25062700006456,两江新区北大资源凯思幼儿园-学生,06:00:00,18:00:00,106.538812,29.657252,218.551,V090线,1,2025-06-30 06:00:00,2025-06-30 06:23:00,20.478,34.0,56.424,281.37,691459.0,2025-06-30 05:26:00,大型面包车
2025-06-30,OM25062700006533,两江新区北大资源凯思幼儿园-老师,06:00:00,18:00:00,106.538812,29.657252,56.602,V090线,2,2025-06-30 06:24:00,2025-06-30 06:45:00,0.234,1.0,,,,,大型面包车
2025-06-30,OM25062700006545,两江新区北大资源凯思幼儿园-老师,06:00:00,18:00:00,106.538812,29.657252,2.25,V090线,3,2025-06-30 06:46:00,2025-06-30 07:06:00,0.234,1.0,,,,,大型面包车
2025-06-30,OM25062900001362,重庆两江新区上林幼儿园-学生,06:00:00,18:00:00,106.564655,29.639156,242.861,V090线,4,2025-06-30 07:23:00,2025-06-30 07:47:00,6.09,17.0,,,,,大型面包车
2025-06-30,OM25062900000376,重庆两江新区上林幼儿园-老师,06:00:00,18:00:00,106.564655,29.639156,98.494,V090线,5,2025-06-30 07:48:00,2025-06-30 08:09:00,0.001,1.0,,,,,大型面包车
2025-06-30,OM25062800001886,农商行两江分行-奶制品,06:00:00,18:00:00,106.57406,29.645788,0.0,V090线,6,2025-06-30 08:16:00,2025-06-30 08:36:00,1.322,7.0,,,,,大型面包车
2025-06-30,OM25062900004949,重庆大江建设工程集团有限公司-客餐,06:00:00,18:00:00,106.560191,29.63154,0.0,V090线,7,2025-06-30 08:44:00,2025-06-30 09:04:00,2.685,8.0,,,,,大型面包车
2025-06-30,OW25062900000145,重庆大江建设工程集团有限公司-客餐,06:00:00,18:00:00,106.560191,29.63154,72.701,V090线,8,2025-06-30 09:04:00,2025-06-30 09:25:00,0.0,0.0,,,,,大型面包车
2025-06-30,OM25062700007769,重庆市江北区人民政府石马河街道办事处,06:00:00,18:00:00,106.48994,29.601242,0.0,V091线,1,2025-06-30 06:00:00,2025-06-30 06:20:00,19.962,31.0,102.952,435.83,1455192.0,2025-06-30 05:30:00,大型面包车
2025-06-30,OM25062800005125,中信银行-冉家坝支行（日配）,06:00:00,18:00:00,106.500604,29.594106,116.18,V091线,2,2025-06-30 06:23:00,2025-06-30 06:45:00,1.864,8.0,,,,,大型面包车
2025-06-30,OM25062900000357,中国人民武装警察部队重庆市总队机关服务中心,06:00:00,18:00:00,106.506101,29.596163,854.464,V091线,3,2025-06-30 06:23:00,2025-06-30 06:59:00,0.805,4.0,,,,,大型面包车
2025-06-30,OM25062900000388,中国人民武装警察部队重庆市总队机关服务中心,06:00:00,18:00:00,106.506101,29.596163,75.537,V091线,4,2025-06-30 06:36:00,2025-06-30 06:57:00,0.0,0.0,,,,,大型面包车
2025-06-30,OM25062900000479,重庆高速资产经营管理有限公司石油销售分公司,06:00:00,18:00:00,106.501284,29.585424,87.97,V091线,5,2025-06-30 07:00:00,2025-06-30 07:21:00,1.565,9.0,,,,,大型面包车
2025-06-30,OM25062900000791,重庆金融街融迈置业有限公司,06:00:00,18:00:00,106.563338,29.583119,11.385,V091线,6,2025-06-30 07:33:00,2025-06-30 07:53:00,7.571,18.0,,,,,大型面包车
2025-06-30,OM25062900000994,重庆金融街融迈置业有限公司,06:00:00,18:00:00,106.563338,29.583119,0.0,V091线,7,2025-06-30 06:20:00,2025-06-30 06:40:00,0.0,0.0,,,,,大型面包车
2025-06-30,OM25062900001777,重庆金融街融迈置业有限公司,06:00:00,18:00:00,106.563338,29.583119,124.883,V091线,8,2025-06-30 06:40:00,2025-06-30 07:02:00,0.0,0.0,,,,,大型面包车
2025-06-30,OM25062900001778,重庆金融街融迈置业有限公司,06:00:00,18:00:00,106.563338,29.583119,0.0,V091线,9,2025-06-30 07:02:00,2025-06-30 07:22:00,0.0,0.0,,,,,大型面包车
2025-06-30,OM25062900001944,重庆市南岸区贝立方幼儿园,06:00:00,18:00:00,106.653274,29.518215,145.784,V091线,10,2025-06-30 07:47:00,2025-06-30 08:09:00,16.651,18.0,,,,,大型面包车
2025-06-30,OM25062900003557,长生基地,06:00:00,18:00:00,106.651284,29.536102,0.0,V091线,11,2025-06-30 06:29:00,2025-06-30 06:49:00,4.651,11.0,,,,,大型面包车
2025-06-30,OM25062900004257,烤匠来福士-员工餐,06:00:00,18:00:00,106.594307,29.570101,3.654,V091线,12,2025-06-30 07:08:00,2025-06-30 07:28:00,12.428,21.0,,,,,大型面包车
2025-06-30,OM25062900005343,烤匠来福士,06:00:00,18:00:00,106.594307,29.570101,23.72,V091线,13,2025-06-30 06:20:00,2025-06-30 06:40:00,0.001,1.0,,,,,大型面包车
2025-06-30,OM25062900006023,烤匠来福士,06:00:00,18:00:00,106.594307,29.570101,11.615,V091线,14,2025-06-30 06:40:00,2025-06-30 07:01:00,0.001,1.0,,,,,大型面包车
2025-06-30,OM25062700006627,浙商银行股份有限公司重庆分行,06:00:00,18:00:00,106.496322,29.619746,26.85,V092线,1,2025-06-30 06:00:00,2025-06-30 06:20:00,19.396,28.0,38.797,528.85,1155765.0,2025-06-30 05:31:00,大型面包车
2025-06-30,OM25062700006690,浙商银行股份有限公司重庆分行,06:00:00,18:00:00,106.496322,29.619746,0.0,V092线,2,2025-06-30 06:20:00,2025-06-30 06:40:00,0.001,1.0,,,,,大型面包车
2025-06-30,OM25062700007669,浙商银行股份有限公司重庆分行,06:00:00,18:00:00,106.496322,29.619746,215.392,V092线,3,2025-06-30 06:40:00,2025-06-30 07:04:00,0.001,1.0,,,,,大型面包车
2025-06-30,OM25062700007678,浙商银行股份有限公司重庆分行,06:00:00,18:00:00,106.496322,29.619746,111.474,V092线,4,2025-06-30 07:04:00,2025-06-30 07:25:00,0.001,1.0,,,,,大型面包车
2025-06-30,OM25062700007689,浙商银行股份有限公司重庆分行,06:00:00,18:00:00,106.496322,29.619746,741.129,V092线,5,2025-06-30 07:25:00,2025-06-30 07:59:00,0.001,1.0,,,,,大型面包车
2025-06-30,OM25062900004742,浙商银行-商务接待,06:00:00,18:00:00,106.496322,29.619746,60.92,V092线,6,2025-06-30 07:59:00,2025-06-30 08:20:00,0.001,1.0,,,,,大型面包车
2025-06-30,OM25062800000621,中信银行-金渝支行（日配）,06:00:00,18:00:00,106.532388,29.658287,10.0,V093线,1,2025-06-30 06:00:00,2025-06-30 06:20:00,19.508,29.0,43.916,250.66,377086.0,2025-06-30 05:31:00,大型面包车
2025-06-30,OM25062900003863,重庆万泰建设（集团）有限公司,06:00:00,18:00:00,106.538349,29.654665,221.2,V093线,2,2025-06-30 06:24:00,2025-06-30 06:47:00,1.161,4.0,,,,,大型面包车
2025-06-30,OM25062900004256,烤匠光环购物中心,06:00:00,18:00:00,106.53562,29.656515,0.0,V093线,3,2025-06-30 06:49:00,2025-06-30 07:09:00,0.458,2.0,,,,,大型面包车
2025-06-30,OM25062900004934,烤匠光环购物中心,06:00:00,18:00:00,106.53562,29.656515,3.975,V093线,4,2025-06-30 07:10:00,2025-06-30 07:31:00,0.001,1.0,,,,,大型面包车
2025-06-30,OW25062900000221,重庆百幼蒙养托育服务合伙企业（有限合伙）,06:00:00,18:00:00,106.532814,29.661553,46.896,V093线,5,2025-06-30 07:39:00,2025-06-30 07:59:00,1.474,8.0,,,,,大型面包车
2025-06-30,OW25062900001211,重庆百幼蒙养托育服务合伙企业（有限合伙）,06:00:00,18:00:00,106.532814,29.661553,15.824,V093线,6,2025-06-30 07:59:00,2025-06-30 08:19:00,0.0,0.0,,,,,大型面包车
2025-06-30,OM25062900004768,烤匠光环购物中心-员工餐,06:00:00,18:00:00,106.53562,29.656515,29.596,V093线,7,2025-06-30 08:27:00,2025-06-30 08:48:00,1.474,8.0,,,,,大型面包车
2025-06-30,OM25062900004769,烤匠光环购物中心,06:00:00,18:00:00,106.53562,29.656515,49.595,V093线,8,2025-06-30 08:49:00,2025-06-30 09:10:00,0.001,1.0,,,,,大型面包车
2025-06-30,OM25062700007306,中铁建生态环境有限公司-早餐,06:00:00,18:00:00,106.402117,29.80278,0.0,V094线,1,2025-06-30 06:00:00,2025-06-30 06:20:00,18.724,23.0,38.618,476.34,433237.0,2025-06-30 05:32:00,大型面包车
2025-06-30,OM25062900000484,中铁建生态环境有限公司-早餐,06:00:00,18:00:00,106.402117,29.80278,90.61,V094线,2,2025-06-30 06:21:00,2025-06-30 06:42:00,0.39,2.0,,,,,大型面包车
2025-06-30,OM25062900002264,中铁建生态环境有限公司-早餐,06:00:00,18:00:00,106.402117,29.80278,37.956,V094线,3,2025-06-30 06:43:00,2025-06-30 07:03:00,0.39,2.0,,,,,大型面包车
2025-06-30,OM25062900005144,中铁建生态环境有限公司-员工餐,06:00:00,18:00:00,106.402117,29.80278,304.671,V094线,4,2025-06-30 07:04:00,2025-06-30 07:28:00,0.39,2.0,,,,,大型面包车
2025-06-30,OM25062800005306,川仪自动化股份-办公室,06:00:00,18:00:00,106.499266,29.620207,30.03,V095线,1,2025-06-30 06:00:00,2025-06-30 06:20:00,18.052,24.0,40.237,218.91,1229180.0,2025-06-30 05:36:00,大型面包车
2025-06-30,OM25062900004518,考试中心（应急管理局菜）,06:00:00,18:00:00,106.506619,29.62111,747.198,V095线,2,2025-06-30 06:25:00,2025-06-30 06:59:00,1.998,5.0,,,,,大型面包车
2025-06-30,OM25062900004551,考试中心（应急管理局肉）,06:00:00,18:00:00,106.506619,29.62111,98.537,V095线,3,2025-06-30 07:00:00,2025-06-30 07:22:00,0.001,1.0,,,,,大型面包车
2025-06-30,OM25062900004554,考试中心（应急管理局冻货）,06:00:00,18:00:00,106.506619,29.62111,27.0,V095线,4,2025-06-30 07:23:00,2025-06-30 07:43:00,0.001,1.0,,,,,大型面包车
2025-06-30,OM25062900005625,考试中心（应急管理局干副）,06:00:00,18:00:00,106.506619,29.62111,138.12,V095线,5,2025-06-30 07:44:00,2025-06-30 08:06:00,0.001,1.0,,,,,大型面包车
2025-06-30,OM25062900005630,考试中心（应急管理局水果）,06:00:00,18:00:00,106.506619,29.62111,188.295,V095线,6,2025-06-30 08:07:00,2025-06-30 08:30:00,0.001,1.0,,,,,大型面包车
2025-06-30,OM25062900001208,考试中心（应急管理局干副）,06:00:00,18:00:00,106.506619,29.62111,0.0,V095线,7,2025-06-30 08:31:00,2025-06-30 08:51:00,0.001,1.0,,,,,大型面包车
2025-06-30,OM25062700005940,重庆一中-幼儿园,06:00:00,18:00:00,106.473207,29.564749,0.0,V096线,1,2025-06-30 06:00:00,2025-06-30 06:20:00,24.56,36.0,57.837,490.66,122922.0,2025-06-30 05:23:00,大型面包车
2025-06-30,OM25062800000551,重庆一中一食堂-小卖部,06:00:00,18:00:00,106.472794,29.565228,0.0,V096线,2,2025-06-30 06:20:00,2025-06-30 06:40:00,0.327,1.0,,,,,大型面包车
2025-06-30,OM25062900001855,重庆市沙坪坝区公共停车管理处,06:00:00,18:00:00,106.469852,29.567755,89.553,V096线,3,2025-06-30 06:21:00,2025-06-30 06:42:00,0.404,1.0,,,,,大型面包车
2025-06-30,OM25062900004083,重庆一中二食堂-小卖部,06:00:00,18:00:00,106.473318,29.565592,0.0,V096线,4,2025-06-30 06:23:00,2025-06-30 06:43:00,0.854,3.0,,,,,大型面包车
2025-06-30,OM25062900005205,丽苑大酒店-西餐厅,06:00:00,18:00:00,106.466603,29.561936,8.4,V096线,5,2025-06-30 06:49:00,2025-06-30 07:09:00,4.313,12.0,,,,,大型面包车
2025-06-30,OM25062900005911,重庆市住房公积金管理中心沙坪坝办事处,06:00:00,18:00:00,106.455863,29.603087,24.969,V096线,6,2025-06-30 07:20:00,2025-06-30 07:40:00,6.987,15.0,,,,,大型面包车
2025-06-30,OM25062700000640,重庆市北碚区照明灯饰管理处,06:00:00,18:00:00,106.423114,29.838559,90.093,V097线,1,2025-06-30 06:00:00,2025-06-30 06:21:00,23.509,33.0,51.881,171.43,895056.0,2025-06-30 05:27:00,大型面包车
2025-06-30,OM25062700007722,西南大学-北区老师,06:00:00,18:00:00,106.437744,29.834768,148.62,V097线,2,2025-06-30 06:26:00,2025-06-30 06:49:00,2.365,5.0,,,,,大型面包车
2025-06-30,OM25062700006663,西南大学-北区幼儿,06:00:00,18:00:00,106.437744,29.834768,367.101,V097线,3,2025-06-30 06:53:00,2025-06-30 07:18:00,1.422,4.0,,,,,大型面包车
2025-06-30,OM25062900005578,十中队,06:00:00,18:00:00,106.416438,29.79395,289.242,V097线,4,2025-06-30 07:31:00,2025-06-30 07:55:00,5.97,13.0,,,,,大型面包车
2025-06-30,OM25062800001768,重庆中法供水-梁沱食堂,06:00:00,18:00:00,106.469056,29.59934,143.8,V098线,1,2025-06-30 06:00:00,2025-06-30 06:22:00,20.981,31.0,41.962,111.62,641236.0,2025-06-30 05:29:00,大型面包车
2025-06-30,OM25062900003018,重庆中法供水-梁沱食堂,06:00:00,18:00:00,106.469056,29.59934,497.436,V098线,2,2025-06-30 06:22:00,2025-06-30 06:50:00,0.0,0.0,,,,,大型面包车
2025-06-30,OM25062700000717,重庆市渝北区人民政府大竹林街道办事处,06:00:00,18:00:00,106.483385,29.629215,70.6,V099线,1,2025-06-30 06:00:00,2025-06-30 06:21:00,16.005,21.0,46.958,172.79,852588.0,2025-06-30 05:39:00,大型面包车
2025-06-30,OM25062900002253,中建五局第三建设有限公司重庆分公司,06:00:00,18:00:00,106.50355,29.606218,334.458,V099线,2,2025-06-30 06:36:00,2025-06-30 07:01:00,5.283,15.0,,,,,大型面包车
2025-06-30,OM25062900004377,重庆博通水利信息网络有限公司,06:00:00,18:00:00,106.509583,29.614488,447.53,V099线,3,2025-06-30 07:09:00,2025-06-30 07:36:00,1.859,8.0,,,,,大型面包车
2025-06-30,OM25062700002693,中建五局第三建设有限公司重庆分公司,06:00:00,18:00:00,106.50355,29.606218,0.0,V099线,4,2025-06-30 07:44:00,2025-06-30 08:04:00,1.859,8.0,,,,,大型面包车
2025-06-30,OM25062900000305,川仪自动化股份-蔡家园区单位食堂,06:00:00,18:00:00,106.484414,29.754229,3131.583,V100线,1,2025-06-30 06:00:00,2025-06-30 07:33:00,23.275,29.0,54.237,307.15,3522072.0,2025-06-30 05:31:00,大型面包车
2025-06-30,OM25062900000322,川仪自动化股份-蔡家园区单位食堂,06:00:00,18:00:00,106.484414,29.754229,42.0,V100线,2,2025-06-30 07:33:00,2025-06-30 07:54:00,0.0,0.0,,,,,大型面包车
2025-06-30,OM25062900002562,两江小博士幼儿园-保亿丽景分园,06:00:00,18:00:00,106.470313,29.725997,140.248,V100线,3,2025-06-30 08:04:00,2025-06-30 08:26:00,4.437,10.0,,,,,大型面包车
2025-06-30,OM25062900002560,两江小博士幼儿园-保亿丽景分园,06:00:00,18:00:00,106.470313,29.725997,24.25,V100线,4,2025-06-30 08:26:00,2025-06-30 08:46:00,0.0,0.0,,,,,大型面包车
2025-06-30,OM25062700002382,地质勘察——早餐,06:00:00,18:00:00,106.47412,29.76077,0.0,V100线,5,2025-06-30 08:57:00,2025-06-30 09:17:00,5.328,11.0,,,,,大型面包车
2025-06-30,OM25062900000580,地质勘察——早餐,06:00:00,18:00:00,106.47412,29.76077,59.54,V100线,6,2025-06-30 09:18:00,2025-06-30 09:39:00,0.001,1.0,,,,,大型面包车
2025-06-30,OM25062900006042,北碚中队,06:00:00,18:00:00,106.457473,29.727665,124.451,V100线,7,2025-06-30 09:51:00,2025-06-30 10:13:00,5.087,12.0,,,,,大型面包车
2025-06-30,OM25062800005133,重庆两江新区中医院,06:00:00,18:00:00,106.484789,29.62849,1576.101,V222线,1,2025-06-30 06:00:00,2025-06-30 06:54:00,16.092,21.0,39.494,255.73,6669132.0,2025-06-30 05:39:00,4.2米
2025-06-30,OM25062900000330,川仪自动化股份-北环园区单位食堂,06:00:00,18:00:00,106.499084,29.620278,5093.031,V222线,2,2025-06-30 07:04:00,2025-06-30 09:27:00,4.257,10.0,,,,,4.2米
2025-06-30,OM25062700002570,重庆市档案馆（日配）,06:00:00,18:00:00,106.577512,29.691415,598.505,V101线,1,2025-06-30 06:00:00,2025-06-30 06:30:00,27.571,38.0,86.206,551.93,1800981.0,2025-06-30 05:19:00,大型面包车
2025-06-30,OM25062800001982,高金实业-一楼食堂,06:00:00,18:00:00,106.575573,29.692734,33.6,V101线,2,2025-06-30 06:30:00,2025-06-30 06:51:00,0.325,2.0,,,,,大型面包车
2025-06-30,OM25062900000377,重庆市地质矿产勘查开发局107地质队,06:00:00,18:00:00,106.611483,29.711383,396.71,V101线,3,2025-06-30 07:01:00,2025-06-30 07:27:00,6.46,14.0,,,,,大型面包车
2025-06-30,OM25062900001891,中信银行-渝北支行（日配）,06:00:00,18:00:00,106.613147,29.712397,82.77,V101线,4,2025-06-30 06:26:00,2025-06-30 06:48:00,0.333,1.0,,,,,大型面包车
2025-06-30,OM25062900001939,依星酒店-客餐,06:00:00,18:00:00,106.617365,29.724688,113.83,V101线,5,2025-06-30 06:51:00,2025-06-30 07:12:00,1.936,6.0,,,,,大型面包车
2025-06-30,OM25062900002009,重庆市渝北区启诚巴蜀小学_2,06:00:00,18:00:00,106.557964,29.718163,441.6,V101线,6,2025-06-30 07:23:00,2025-06-30 07:49:00,6.803,14.0,,,,,大型面包车
2025-06-30,OM25062900002051,两江天宫殿嘉欣幼儿园-老师,06:00:00,18:00:00,106.550159,29.609917,4.368,V101线,7,2025-06-30 08:16:00,2025-06-30 08:36:00,18.011,28.0,,,,,大型面包车
2025-06-30,OM25062900003099,重庆两江新区玉兰路翰林幼儿园,06:00:00,18:00:00,106.550159,29.609917,49.663,V101线,8,2025-06-30 06:20:00,2025-06-30 06:41:00,0.001,1.0,,,,,大型面包车
2025-06-30,OM25062900003577,两江小博士锦上华庭幼儿园-学生,06:00:00,18:00:00,106.53439,29.611868,61.795,V101线,9,2025-06-30 06:44:00,2025-06-30 07:05:00,2.206,8.0,,,,,大型面包车
2025-06-30,OM25062900004312,两江小博士锦上华庭幼儿园-老师,06:00:00,18:00:00,106.53439,29.611868,18.14,V101线,10,2025-06-30 06:21:00,2025-06-30 06:41:00,0.001,1.0,,,,,大型面包车
2025-06-30,OM25062900000521,太极涵菡渝北分公司-二楼外卖,06:00:00,18:00:00,106.491675,29.63761,88.54,V102线,1,2025-06-30 06:00:00,2025-06-30 06:21:00,17.012,22.0,76.281,556.14,1840986.0,2025-06-30 05:34:00,大型面包车
2025-06-30,OM25062900000524,太极涵菡渝北分公司-二楼特色餐,06:00:00,18:00:00,106.491675,29.63761,167.64,V102线,2,2025-06-30 06:21:00,2025-06-30 06:44:00,0.001,1.0,,,,,大型面包车
2025-06-30,OM25062900000535,太极涵菡渝北分公司-一楼,06:00:00,18:00:00,106.491675,29.63761,674.677,V102线,3,2025-06-30 06:44:00,2025-06-30 07:16:00,0.001,1.0,,,,,大型面包车
2025-06-30,OM25062900000540,太极涵菡渝北分公司-二楼早餐,06:00:00,18:00:00,106.491675,29.63761,109.55,V102线,4,2025-06-30 07:16:00,2025-06-30 07:37:00,0.001,1.0,,,,,大型面包车
2025-06-30,OM25062900000881,中信银行-九龙坡支行（日配）,06:00:00,18:00:00,106.520194,29.511616,111.186,V102线,5,2025-06-30 08:06:00,2025-06-30 08:28:00,19.282,31.0,,,,,大型面包车
2025-06-30,OM25062900002909,重庆市九龙坡区市场监督管理局,06:00:00,18:00:00,106.519389,29.511181,301.308,V102线,6,2025-06-30 06:22:00,2025-06-30 06:46:00,0.154,1.0,,,,,大型面包车
2025-06-30,OM25062900002955,中信银行-杨家坪支行（日配）,06:00:00,18:00:00,106.524106,29.518995,84.45,V102线,7,2025-06-30 06:49:00,2025-06-30 07:10:00,1.769,4.0,,,,,大型面包车
2025-06-30,OW25062900001121,重庆皓春健康产业有限公司,06:00:00,18:00:00,106.498125,29.534557,303.635,V102线,8,2025-06-30 07:19:00,2025-06-30 07:44:00,5.826,12.0,,,,,大型面包车
2025-06-30,OM25062700002705,重庆两江新区嘉景湾幼儿园-老师餐,06:00:00,18:00:00,106.488323,29.702462,9.35,V103线,1,2025-06-30 06:00:00,2025-06-30 06:20:00,17.171,21.0,76.168,206.69,112338.0,2025-06-30 05:39:00,大型面包车
2025-06-30,OM25062700003714,重庆两江新区嘉景湾幼儿园-幼儿餐,06:00:00,18:00:00,106.488323,29.702462,33.899,V103线,2,2025-06-30 06:21:00,2025-06-30 06:42:00,0.001,1.0,,,,,大型面包车
2025-06-30,OM25062900001958,悦来食堂,06:00:00,18:00:00,106.546076,29.742892,27.163,V103线,3,2025-06-30 07:02:00,2025-06-30 07:22:00,17.942,20.0,,,,,大型面包车
2025-06-30,OM25062800001557,复兴法庭,06:00:00,18:00:00,106.560036,29.793809,41.926,V103线,4,2025-06-30 07:34:00,2025-06-30 07:55:00,7.446,12.0,,,,,大型面包车
2025-06-30,OM25062900004563,渝北区消防救援支队-悦来站点,06:00:00,18:00:00,106.552512,29.736186,0.0,V103线,5,2025-06-30 08:09:00,2025-06-30 08:29:00,8.817,14.0,,,,,大型面包车
2025-06-30,OM25062700007150,重庆澋悦房地产开发有限公司,06:00:00,18:00:00,106.520006,29.557101,198.215,V104线,1,2025-06-30 06:00:00,2025-06-30 06:23:00,26.153,40.0,76.254,240.16,877256.0,2025-06-30 05:20:00,大型面包车
2025-06-30,OM25062800003818,园林技工学校-教师,06:00:00,18:00:00,106.529903,29.539833,0.0,V104线,2,2025-06-30 06:34:00,2025-06-30 06:54:00,6.562,11.0,,,,,大型面包车
2025-06-30,OM25062900003940,园林技工学校-教师,06:00:00,18:00:00,106.529903,29.539833,188.232,V104线,3,2025-06-30 06:54:00,2025-06-30 07:17:00,0.0,0.0,,,,,大型面包车
2025-06-30,OM25062900004359,慎安医院大厨房,06:00:00,18:00:00,106.478899,29.642794,230.612,V104线,4,2025-06-30 07:51:00,2025-06-30 08:14:00,17.633,34.0,,,,,大型面包车
2025-06-30,OM25062900002680,重庆市北碚区童家溪镇人民政府,06:00:00,18:00:00,106.454883,29.689305,260.197,V104线,5,2025-06-30 08:37:00,2025-06-30 09:01:00,13.526,23.0,,,,,大型面包车
2025-06-30,OM25062900002119,重庆熙街购物中心管理有限公司,06:00:00,18:00:00,106.30965,29.608528,203.091,V105线,1,2025-06-30 06:00:00,2025-06-30 06:23:00,13.533,20.0,41.275,186.19,1849636.0,2025-06-30 05:40:00,大型面包车
2025-06-30,OM25062900002858,重庆万普隆能源技术有限公司,06:00:00,18:00:00,106.291009,29.573053,412.64,V105线,2,2025-06-30 06:37:00,2025-06-30 07:03:00,6.013,14.0,,,,,大型面包车
2025-06-30,OM25062900003798,重庆万普隆能源技术有限公司,06:00:00,18:00:00,106.291009,29.573053,88.88,V105线,3,2025-06-30 07:03:00,2025-06-30 07:25:00,0.0,0.0,,,,,大型面包车
2025-06-30,OW25062700000087,天骄名城小金星幼儿园-学生,06:00:00,18:00:00,106.322559,29.587865,1145.025,V105线,4,2025-06-30 07:37:00,2025-06-30 08:20:00,5.397,12.0,,,,,大型面包车
2025-06-30,OM25062900000353,重庆中兴软件有限责任公司,06:00:00,18:00:00,106.518746,29.625885,16.65,V106线,1,2025-06-30 06:00:00,2025-06-30 06:20:00,19.909,27.0,40.836,201.56,1238960.0,2025-06-30 05:33:00,大型面包车
2025-06-30,OM25062900000356,重庆中兴软件有限责任公司,06:00:00,18:00:00,106.518746,29.625885,285.49,V106线,2,2025-06-30 06:20:00,2025-06-30 06:45:00,0.0,0.0,,,,,大型面包车
2025-06-30,OM25062900000358,重庆中兴软件有限责任公司,06:00:00,18:00:00,106.518746,29.625885,15.0,V106线,3,2025-06-30 06:45:00,2025-06-30 07:05:00,0.0,0.0,,,,,大型面包车
2025-06-30,OM25062900000362,重庆中兴软件有限责任公司,06:00:00,18:00:00,106.518746,29.625885,597.125,V106线,4,2025-06-30 07:05:00,2025-06-30 07:35:00,0.0,0.0,,,,,大型面包车
2025-06-30,OM25062900000364,重庆中兴软件有限责任公司,06:00:00,18:00:00,106.518746,29.625885,245.0,V106线,5,2025-06-30 07:35:00,2025-06-30 07:58:00,0.0,0.0,,,,,大型面包车
2025-06-30,OM25062900003983,重庆远香房地产开发有限公司,06:00:00,18:00:00,106.491342,29.663581,79.695,V106线,6,2025-06-30 08:15:00,2025-06-30 08:37:00,7.367,17.0,,,,,大型面包车
2025-06-30,OM25062900002118,重庆两江新区华师中旭学校,06:00:00,18:00:00,106.494806,29.649728,65.41,V107线,1,2025-06-30 06:00:00,2025-06-30 06:21:00,14.369,19.0,67.814,448.26,1344228.0,2025-06-30 05:38:00,大型面包车
2025-06-30,OM25062900002397,重庆市食品药品检验检测研究院-白案,06:00:00,18:00:00,106.521924,29.624062,211.05,V107线,2,2025-06-30 06:35:00,2025-06-30 06:58:00,9.244,18.0,,,,,大型面包车
2025-06-30,OM25062900002438,重庆市食品药品检验检测研究院-红案,06:00:00,18:00:00,106.521924,29.624062,515.505,V107线,3,2025-06-30 06:23:00,2025-06-30 06:51:00,0.001,1.0,,,,,大型面包车
2025-06-30,OM25062900002661,陆军勤务学院训练基地教工食堂,06:00:00,18:00:00,106.502051,29.545444,368.5,V107线,4,2025-06-30 07:15:00,2025-06-30 07:40:00,15.756,28.0,,,,,大型面包车
2025-06-30,OM25062900004376,重庆市化工研究院有限公司,06:00:00,18:00:00,106.481643,29.584444,183.763,V107线,5,2025-06-30 06:37:00,2025-06-30 07:00:00,7.706,16.0,,,,,大型面包车
2025-06-30,OM25062700005588,重庆市沙坪坝区阳光家园第一幼儿园_教师,06:00:00,18:00:00,106.453638,29.650345,180.348,V108线,1,2025-06-30 06:00:00,2025-06-30 06:23:00,12.151,19.0,70.569,290.21,1771279.0,2025-06-30 05:41:00,大型面包车
2025-06-30,OM25062800000677,重庆市九龙坡区人民政府二郎街道办事处,06:00:00,18:00:00,106.455966,29.510073,499.53,V108线,2,2025-06-30 07:06:00,2025-06-30 07:33:00,19.895,43.0,,,,,大型面包车
2025-06-30,OM25062700007409,中国铁路成都局集团有限公司重庆建设指挥部,06:00:00,18:00:00,106.448115,29.518068,564.189,V108线,3,2025-06-30 07:41:00,2025-06-30 08:10:00,2.82,8.0,,,,,大型面包车
2025-06-30,OM25062900003058,九龙坡区城管综合执法支队-兰花小区,06:00:00,18:00:00,106.466888,29.521159,244.357,V108线,4,2025-06-30 08:21:00,2025-06-30 08:45:00,4.378,11.0,,,,,大型面包车
2025-06-30,OM25062900005686,重庆万家雅迪汽车销售服务有限公司,06:00:00,18:00:00,106.45994,29.53091,241.089,V108线,5,2025-06-30 08:51:00,2025-06-30 09:15:00,1.727,6.0,,,,,大型面包车
2025-06-30,OW25062900001038,重庆市沙坪坝区华彩幼儿园,06:00:00,18:00:00,106.457635,29.532843,41.766,V108线,6,2025-06-30 09:28:00,2025-06-30 09:48:00,4.733,13.0,,,,,大型面包车
2025-06-30,OM25062800001623,重庆市公安局沙坪坝区分局交通巡逻警察支队勤务五大队,06:00:00,18:00:00,106.341044,29.605,136.755,V109线,1,2025-06-30 06:00:00,2025-06-30 06:22:00,13.184,20.0,33.641,165.2,746801.0,2025-06-30 05:40:00,大型面包车
2025-06-30,OM25062900001341,高新区自来水-大学城食堂,06:00:00,18:00:00,106.338853,29.603472,288.815,V109线,2,2025-06-30 06:26:00,2025-06-30 06:50:00,2.423,4.0,,,,,大型面包车
2025-06-30,OM25062900001591,虎溪校区--内训,06:00:00,18:00:00,106.330443,29.605097,226.365,V109线,3,2025-06-30 06:52:00,2025-06-30 07:16:00,1.339,2.0,,,,,大型面包车
2025-06-30,OM25062900003711,沙照明设施管理-大学城,06:00:00,18:00:00,106.341215,29.607477,71.866,V109线,4,2025-06-30 07:19:00,2025-06-30 07:40:00,1.26,3.0,,,,,大型面包车
2025-06-30,OM25062900002201,虎溪校区外训,06:00:00,18:00:00,106.328098,29.605942,23.0,V109线,5,2025-06-30 07:45:00,2025-06-30 08:05:00,2.054,5.0,,,,,大型面包车
